{"type": "FeatureCollection", "crs": {"type": "name", "properties": {"name": "EPSG:4326"}}, "features": [{"type": "Feature", "properties": {"name": "05731 - Caleb Kiarie", "substation": "05731", "primaryfee": "SOUTH EX LANET", "primaysubs": "LANET SUBSTATION", "county": "Nakuru", "internalsb": 300607388.0, "customerss": 2955.0, "physicallo": "LANET", "pk": "118"}, "geometry": {"type": "Point", "coordinates": [36.13064694, -0.297609167]}}, {"type": "Feature", "properties": {"name": "05720 - Mwai Thogo", "substation": "05720", "primaryfee": "SOUTH LAKE SHORE 11KV EX", "primaysubs": "DCK", "county": "Nakuru", "internalsb": 300607950.0, "customerss": 0.0, "physicallo": "SIMBER FARM -SHER", "pk": "249"}, "geometry": {"type": "Point", "coordinates": [36.36430389, -0.825513333]}}, {"type": "Feature", "properties": {"name": "05729 - G.K Bro'S N.S.B", "substation": "05729", "primaryfee": "NORTH SHORE 11KV EX MARUL", "primaysubs": "MARULA", "county": "Nakuru", "internalsb": 300608866.0, "customerss": 0.0, "physicallo": "g.k", "pk": "401"}, "geometry": {"type": "Point", "coordinates": [36.28372869, -0.731642222]}}, {"type": "Feature", "properties": {"name": "05722 - Bedi Investments", "substation": "05722", "primaryfee": "INTERCONNECTOR 1 EX LANET", "primaysubs": "LANET SUBSTATION", "county": "Nakuru", "internalsb": 300610178.0, "customerss": 627.0, "physicallo": "Bedi fabrics", "pk": "620"}, "geometry": {"type": "Point", "coordinates": [36.06101861, -0.290272778]}}, {"type": "Feature", "properties": {"name": "05726 - NAKURU WORKERS ESTATE", "substation": "05726", "primaryfee": "MAILI SABA TOWNFEEDER EXBAHATI", "primaysubs": "BAHATI  33/11KV  S/STN", "county": "Nakuru", "internalsb": 300612286.0, "customerss": 2544.0, "physicallo": "WORKERS -NAKURU", "pk": "979"}, "geometry": {"type": "Point", "coordinates": [36.11555778, -0.265338333]}}, {"type": "Feature", "properties": {"name": "05728 - Local Tx_Rongai S/S", "substation": "05728", "primaryfee": "RONGAI TOWN 11KV EX RONGA", "primaysubs": "RONGAI", "county": "Nakuru", "internalsb": 300639227.0, "customerss": 65.0, "physicallo": "RONGAI", "pk": "1142"}, "geometry": {"type": "Point", "coordinates": [35.85105728, -0.20118475]}}, {"type": "Feature", "properties": {"name": "05724 - Olkaria Geothermal", "substation": "05724", "primaryfee": "DCK NAROK 33KV EX SUSWA", "primaysubs": "NAIVASHA SUBSTATION", "county": "Nakuru", "internalsb": 300666614.0, "customerss": 0.0, "physicallo": "OLKARIA", "pk": "1659"}, "geometry": {"type": "Point", "coordinates": [36.31251, -0.885753056]}}, {"type": "Feature", "properties": {"name": "05761 - Stem Hotel Lanet", "substation": "05761", "primaryfee": "GILGIL /MARULA EX LANET", "primaysubs": "LANET SUBSTATION", "county": "Nakuru", "internalsb": 300607758.0, "customerss": 911.0, "physicallo": "stem hotel", "pk": "167"}, "geometry": {"type": "Point", "coordinates": [36.14049472, -0.3138825]}}, {"type": "Feature", "properties": {"name": "05744 - Naivex Limited S.S.", "substation": "05744", "primaryfee": "KIHOTO SOUTHLAKE 11KV", "primaysubs": "KIHOTO SUBSTATION", "county": "Nakuru", "internalsb": 300607993.0, "customerss": 206.0, "physicallo": "orosorua", "pk": "291"}, "geometry": {"type": "Point", "coordinates": [36.42202583, -0.76893]}}, {"type": "Feature", "properties": {"name": "05763 - Aberdare Kangogo", "substation": "05763", "primaryfee": "KIHOTO SOUTHLAKE 11KV", "primaysubs": "KIHOTO SUBSTATION", "county": "Nakuru", "internalsb": 300608005.0, "customerss": 61.0, "physicallo": "aberdare   kangogo", "pk": "303"}, "geometry": {"type": "Point", "coordinates": [36.4290025, -0.750381556]}}, {"type": "Feature", "properties": {"name": "05767 - ASPHALT", "substation": "05767", "primaryfee": "KIHOTO NAIVASHA TOWN 11KV", "primaysubs": "KIHOTO SUBSTATION", "county": "Nakuru", "internalsb": 300608126.0, "customerss": 11.0, "physicallo": "Near Naivasha Sport Club (NSC", "pk": "313"}, "geometry": {"type": "Point", "coordinates": [36.42918528, -0.713892778]}}, {"type": "Feature", "properties": {"name": "05770 - MACHARIA KIMANI", "substation": "05770", "primaryfee": "UNIVERSITY FEEDER EX KABARAK", "primaysubs": "KABARAK 33/11 SUBSTATION", "county": "Nakuru", "internalsb": 300608971.0, "customerss": 28.0, "physicallo": "KIRANGARI FARM", "pk": "413"}, "geometry": {"type": "Point", "coordinates": [35.90386194, -0.152440917]}}, {"type": "Feature", "properties": {"name": "18511 - NO NAME", "substation": "18511", "primaryfee": "NAKURU TOWN 11KV EX NAKURU", "primaysubs": "NAKURU DEPOT", "county": "Nakuru", "internalsb": 300610031.0, "customerss": 506.0, "physicallo": "RVIST town campus", "pk": "524"}, "geometry": {"type": "Point", "coordinates": [36.06746278, -0.284928611]}}, {"type": "Feature", "properties": {"name": "05760 - Telkom Exch._Naivasha", "substation": "05760", "primaryfee": "KIHOTO NAIVASHA TOWN 11KV", "primaysubs": "KIHOTO SUBSTATION", "county": "Nakuru", "internalsb": 300609106.0, "customerss": 4433.0, "physicallo": "NEXT TO COOPERATIVE BANK", "pk": "418"}, "geometry": {"type": "Point", "coordinates": [36.43035361, -0.713433611]}}, {"type": "Feature", "properties": {"name": "05788 - Naivasha Slaughter H", "substation": "05788", "primaryfee": "KIHOTO NAIVASHA TOWN 11KV", "primaysubs": "KIHOTO SUBSTATION", "county": "Nakuru", "internalsb": 300609133.0, "customerss": 11.0, "physicallo": "NAIVASHA SLAUGHTER HOUSE", "pk": "435"}, "geometry": {"type": "Point", "coordinates": [36.4383925, -0.704396389]}}, {"type": "Feature", "properties": {"name": "05758 - ADC POTATO PROJECT", "substation": "05758", "primaryfee": "KIHOTO NAIVASHA TOWN 11KV", "primaysubs": "KIHOTO SUBSTATION", "county": "Nakuru", "internalsb": 300609152.0, "customerss": 2383.0, "physicallo": "Near assistance chief office", "pk": "451"}, "geometry": {"type": "Point", "coordinates": [36.44694472, -0.721283056]}}, {"type": "Feature", "properties": {"name": "05740 - Ngera Estate", "substation": "05740", "primaryfee": "RACE TRACK 11KV EX MWARIKI", "primaysubs": "NAKURU DEPOT", "county": "Nakuru", "internalsb": 300610071.0, "customerss": 579.0, "physicallo": "NAKURU", "pk": "548"}, "geometry": {"type": "Point", "coordinates": [36.07063444, -0.301680806]}}, {"type": "Feature", "properties": {"name": "05766 - Langalanga/Freehold", "substation": "05766", "primaryfee": "RACE TRACK 11KV EX MWARIKI", "primaysubs": "NAKURU DEPOT", "county": "Nakuru", "internalsb": 300610092.0, "customerss": 1417.0, "physicallo": "KIHARA PLAZA", "pk": "569"}, "geometry": {"type": "Point", "coordinates": [36.06482222, -0.300489389]}}, {"type": "Feature", "properties": {"name": "05769 - Put Sarajevo Workshop", "substation": "05769", "primaryfee": "KIRENGERO 11KV EX SUBUKIA", "primaysubs": "SUBUKIA", "county": "Nakuru", "internalsb": 300610372.0, "customerss": 107.0, "physicallo": "KABAZI", "pk": "683"}, "geometry": {"type": "Point", "coordinates": [36.1754075, -0.070645]}}, {"type": "Feature", "properties": {"name": "05733 - Subukia Valley Waate", "substation": "05733", "primaryfee": "KIRENGERO 11KV EX SUBUKIA", "primaysubs": "SUBUKIA", "county": "Nakuru", "internalsb": 300610376.0, "customerss": 167.0, "physicallo": "KABAZI", "pk": "687"}, "geometry": {"type": "Point", "coordinates": [36.16730461, -0.047775833]}}, {"type": "Feature", "properties": {"name": "05780 - T-OFF TO GREEN GARDEN", "substation": "05780", "primaryfee": "MOLO 11KV EX ELBURGON", "primaysubs": "ELBURGON", "county": "Nakuru", "internalsb": 300610860.0, "customerss": 249.0, "physicallo": "molo township t-off to green", "pk": "741"}, "geometry": {"type": "Point", "coordinates": [35.72251472, -0.239825833]}}, {"type": "Feature", "properties": {"name": "05749 - C. K. GACHUHI", "substation": "05749", "primaryfee": "MOLO 11KV EX ELBURGON", "primaysubs": "ELBURGON", "county": "Nakuru", "internalsb": 300610942.0, "customerss": 14.0, "physicallo": "c.k gachuhi", "pk": "755"}, "geometry": {"type": "Point", "coordinates": [35.71097056, -0.212327222]}}, {"type": "Feature", "properties": {"name": "05777 - Nyahururu Solai", "substation": "05777", "primaryfee": "NYAHURURU/MARALAL 33Kv L1", "primaysubs": "LANET SUBSTATION", "county": "Nakuru", "internalsb": 300611197.0, "customerss": 18.0, "physicallo": "FLORA OLA", "pk": "868"}, "geometry": {"type": "Point", "coordinates": [36.11080556, -0.120101111]}}, {"type": "Feature", "properties": {"name": "05741 - Wairimu  Wamae", "substation": "05741", "primaryfee": "MAILI SABA TOWNFEEDER EXBAHATI", "primaysubs": "BAHATI  33/11KV  S/STN", "county": "Nakuru", "internalsb": 300611678.0, "customerss": 11.0, "physicallo": "bethel girls high school", "pk": "944"}, "geometry": {"type": "Point", "coordinates": [36.14862472, -0.276588889]}}, {"type": "Feature", "properties": {"name": "05807 - Toll Station_Gilgil", "substation": "05807", "primaryfee": "GILGIL /MARULA EX LANET", "primaysubs": "LANET SUBSTATION", "county": "Nakuru", "internalsb": 300607779.0, "customerss": 108.0, "physicallo": "gil gil weighing brige", "pk": "180"}, "geometry": {"type": "Point", "coordinates": [36.36513111, -0.578783611]}}, {"type": "Feature", "properties": {"name": "05811 - Temp. Konoike Const.", "substation": "05811", "primaryfee": "MENENGAI 11KV EX NAKURU", "primaysubs": "NAKURU DEPOT", "county": "Nakuru", "internalsb": 300609989.0, "customerss": 0.0, "physicallo": "silo grain workshop", "pk": "512"}, "geometry": {"type": "Point", "coordinates": [36.04318083, -0.278857222]}}, {"type": "Feature", "properties": {"name": "05809 - Kiti Office", "substation": "05809", "primaryfee": "NORTH 11Kv EX LANET", "primaysubs": "LANET SUBSTATION", "county": "Nakuru", "internalsb": 300612544.0, "customerss": 218.0, "physicallo": "NAKURU", "pk": "1003"}, "geometry": {"type": "Point", "coordinates": [36.10499889, -0.270180833]}}, {"type": "Feature", "properties": {"name": "05836 - Bakery Nakuru Ind. B", "substation": "05836", "primaryfee": "NORTH 11Kv EX LANET", "primaysubs": "LANET SUBSTATION", "county": "Nakuru", "internalsb": 300607346.0, "customerss": 3.0, "physicallo": "valley bakery-tosti", "pk": "104"}, "geometry": {"type": "Point", "coordinates": [36.11878386, -0.290753056]}}, {"type": "Feature", "properties": {"name": "05854 - NATIONAL YOUTH SERVIC", "substation": "05854", "primaryfee": "GILGIL INTERCONN 33KV EX SUSWA", "primaysubs": "NAIVASHA SUBSTATION", "county": "Nakuru", "internalsb": 300642712.0, "customerss": 574.0, "physicallo": "JUST OFF THE NYS COMPOUND _10", "pk": "1202"}, "geometry": {"type": "Point", "coordinates": [36.48986472, -0.651147917]}}, {"type": "Feature", "properties": {"name": "05864 - Eburru Reservoir Tan", "substation": "05864", "primaryfee": "GILGIL /MARULA EX LANET", "primaysubs": "LANET SUBSTATION", "county": "Nakuru", "internalsb": 300608612.0, "customerss": 145.0, "physicallo": "ebburu resavour", "pk": "341"}, "geometry": {"type": "Point", "coordinates": [36.26180778, -0.636058722]}}, {"type": "Feature", "properties": {"name": "05862 - Solai Secondary Scho", "substation": "05862", "primaryfee": "NYAHURURU/MARALAL 33Kv L1", "primaysubs": "LANET SUBSTATION", "county": "Nakuru", "internalsb": 300611208.0, "customerss": 339.0, "physicallo": "within solai secondary school", "pk": "879"}, "geometry": {"type": "Point", "coordinates": [36.12773667, -0.098472222]}}, {"type": "Feature", "properties": {"name": "13539 - MAIMAHIU HOSPITAL", "substation": "13539", "primaryfee": "TOWN 11KV EX MAI MAHIU", "primaysubs": "MAI MAHIU 66/11 SUB STATION", "county": "Nakuru", "internalsb": 300004453.0, "customerss": 599.0, "physicallo": "NEAR MAI MAHIU SS", "pk": "1"}, "geometry": {"type": "Point", "coordinates": [36.59204778, -0.987971944]}}, {"type": "Feature", "properties": {"name": "05939 - Gilgil Industies Ltd", "substation": "05939", "primaryfee": "GILGIL TOWN 11KV EX GILGI", "primaysubs": "GILGIL", "county": "Nakuru", "internalsb": 300607805.0, "customerss": 630.0, "physicallo": "GILGIL TREATMENT INDUSTRIES", "pk": "201"}, "geometry": {"type": "Point", "coordinates": [36.33129917, -0.5041375]}}, {"type": "Feature", "properties": {"name": "05980 - Kenyatta Barracks", "substation": "05980", "primaryfee": "GILGIL TOWN 11KV EX GILGI", "primaysubs": "GILGIL", "county": "Nakuru", "internalsb": 300607846.0, "customerss": 1329.0, "physicallo": "NYAHURURU ROAD", "pk": "217"}, "geometry": {"type": "Point", "coordinates": [36.34387639, -0.491297222]}}, {"type": "Feature", "properties": {"name": "05871 - E.E. Sisters Of Mary", "substation": "05871", "primaryfee": "RONGAI TOWN 11KV EX RONGA", "primaysubs": "RONGAI", "county": "Nakuru", "internalsb": 300608664.0, "customerss": 221.0, "physicallo": "sacred heart boys rongai", "pk": "372"}, "geometry": {"type": "Point", "coordinates": [35.86693564, -0.175839167]}}, {"type": "Feature", "properties": {"name": "05932 - Sharimar Farm", "substation": "05932", "primaryfee": "NORTH SHORE 11KV EX MARUL", "primaysubs": "MARULA", "county": "Nakuru", "internalsb": 300608675.0, "customerss": 350.0, "physicallo": "sharimar farm", "pk": "377"}, "geometry": {"type": "Point", "coordinates": [36.29809944, -0.722715278]}}, {"type": "Feature", "properties": {"name": "05941 - H.K Karemeri", "substation": "05941", "primaryfee": "RONGAI TOWN 11KV EX RONGA", "primaysubs": "RONGAI", "county": "Nakuru", "internalsb": 300608690.0, "customerss": 117.0, "physicallo": "H.K KAREMERI", "pk": "385"}, "geometry": {"type": "Point", "coordinates": [35.85358806, -0.151110778]}}, {"type": "Feature", "properties": {"name": "05870 - Kivumbini Estate", "substation": "05870", "primaryfee": "GAME PARK 11KV EX MWARIKI", "primaysubs": "MWARIKI 33/11KV", "county": "Nakuru", "internalsb": 300610120.0, "customerss": 3863.0, "physicallo": "NEAR THE GATE OF AIC CHURCH", "pk": "589"}, "geometry": {"type": "Point", "coordinates": [36.08286667, -0.298036111]}}, {"type": "Feature", "properties": {"name": "05945 - N. Kamau", "substation": "05945", "primaryfee": "UNIVERSITY FEEDER EX KABARAK", "primaysubs": "KABARAK 33/11 SUBSTATION", "county": "Nakuru", "internalsb": 300610312.0, "customerss": 91.0, "physicallo": "MENENGAI", "pk": "648"}, "geometry": {"type": "Point", "coordinates": [35.99678917, -0.236602778]}}, {"type": "Feature", "properties": {"name": "05944 - Macharia", "substation": "05944", "primaryfee": "UNIVERSITY FEEDER EX KABARAK", "primaysubs": "KABARAK 33/11 SUBSTATION", "county": "Nakuru", "internalsb": 300610313.0, "customerss": 138.0, "physicallo": "kilobon", "pk": "649"}, "geometry": {"type": "Point", "coordinates": [35.99842556, -0.233447722]}}, {"type": "Feature", "properties": {"name": "05968 - Mangu Farm", "substation": "05968", "primaryfee": "UNIVERSITY FEEDER EX KABARAK", "primaysubs": "KABARAK 33/11 SUBSTATION", "county": "Nakuru", "internalsb": 300610321.0, "customerss": 260.0, "physicallo": "MENENGAI", "pk": "657"}, "geometry": {"type": "Point", "coordinates": [35.97219389, -0.217581056]}}, {"type": "Feature", "properties": {"name": "05965 - Mangu", "substation": "05965", "primaryfee": "UNIVERSITY FEEDER EX KABARAK", "primaysubs": "KABARAK 33/11 SUBSTATION", "county": "Nakuru", "internalsb": 300610326.0, "customerss": 150.0, "physicallo": "mangu", "pk": "661"}, "geometry": {"type": "Point", "coordinates": [35.98097528, -0.218123278]}}, {"type": "Feature", "properties": {"name": "05969 - Mangu Farm", "substation": "05969", "primaryfee": "UNIVERSITY FEEDER EX KABARAK", "primaysubs": "KABARAK 33/11 SUBSTATION", "county": "Nakuru", "internalsb": 300610327.0, "customerss": 144.0, "physicallo": "MENENGAI", "pk": "662"}, "geometry": {"type": "Point", "coordinates": [35.96879994, -0.215835278]}}, {"type": "Feature", "properties": {"name": "05970 - Mangu Farm", "substation": "05970", "primaryfee": "UNIVERSITY FEEDER EX KABARAK", "primaysubs": "KABARAK 33/11 SUBSTATION", "county": "Nakuru", "internalsb": 300610328.0, "customerss": 148.0, "physicallo": "MENENGAI", "pk": "663"}, "geometry": {"type": "Point", "coordinates": [35.97258194, -0.210066944]}}, {"type": "Feature", "properties": {"name": "05971 - Mangu Farm", "substation": "05971", "primaryfee": "UNIVERSITY FEEDER EX KABARAK", "primaysubs": "KABARAK 33/11 SUBSTATION", "county": "Nakuru", "internalsb": 300610329.0, "customerss": 112.0, "physicallo": "mangu farm", "pk": "664"}, "geometry": {"type": "Point", "coordinates": [35.9653725, -0.214318333]}}, {"type": "Feature", "properties": {"name": "05972 - Mangu", "substation": "05972", "primaryfee": "UNIVERSITY FEEDER EX KABARAK", "primaysubs": "KABARAK 33/11 SUBSTATION", "county": "Nakuru", "internalsb": 300610330.0, "customerss": 164.0, "physicallo": "MENENGAI", "pk": "665"}, "geometry": {"type": "Point", "coordinates": [35.96962111, -0.2081875]}}, {"type": "Feature", "properties": {"name": "05973 - Mangu Farm", "substation": "05973", "primaryfee": "UNIVERSITY FEEDER EX KABARAK", "primaysubs": "KABARAK 33/11 SUBSTATION", "county": "Nakuru", "internalsb": 300610331.0, "customerss": 283.0, "physicallo": "MENENGAI", "pk": "666"}, "geometry": {"type": "Point", "coordinates": [35.96298889, -0.210970833]}}, {"type": "Feature", "properties": {"name": "05937 - K Mbugua", "substation": "05937", "primaryfee": "MOLO 11KV EX ELBURGON", "primaysubs": "ELBURGON", "county": "Nakuru", "internalsb": 300610818.0, "customerss": 353.0, "physicallo": "michatha ya juu", "pk": "715"}, "geometry": {"type": "Point", "coordinates": [35.74789917, -0.276235278]}}, {"type": "Feature", "properties": {"name": "05927 - P.K Ngugi", "substation": "05927", "primaryfee": "MAILI SABA TOWNFEEDER EXBAHATI", "primaysubs": "BAHATI  33/11KV  S/STN", "county": "Nakuru", "internalsb": 300611944.0, "customerss": 231.0, "physicallo": "mentor high school", "pk": "948"}, "geometry": {"type": "Point", "coordinates": [36.14797861, -0.255043333]}}, {"type": "Feature", "properties": {"name": "05946 - Njoroge", "substation": "05946", "primaryfee": "UNIVERSITY FEEDER EX KABARAK", "primaysubs": "KABARAK 33/11 SUBSTATION", "county": "Nakuru", "internalsb": 300638470.0, "customerss": 81.0, "physicallo": "KIAMUNYI", "pk": "1106"}, "geometry": {"type": "Point", "coordinates": [35.98854611, -0.227539444]}}, {"type": "Feature", "properties": {"name": "05990 - NyamuANDOthers", "substation": "05990", "primaryfee": "UNIVERSITY FEEDER EX KABARAK", "primaysubs": "KABARAK 33/11 SUBSTATION", "county": "Nakuru", "internalsb": 300638482.0, "customerss": 189.0, "physicallo": "MANGU", "pk": "1107"}, "geometry": {"type": "Point", "coordinates": [35.94444778, -0.192503611]}}, {"type": "Feature", "properties": {"name": "05992 - Salome AND Others", "substation": "05992", "primaryfee": "UNIVERSITY FEEDER EX KABARAK", "primaysubs": "KABARAK 33/11 SUBSTATION", "county": "Nakuru", "internalsb": 300638483.0, "customerss": 145.0, "physicallo": "MANGU", "pk": "1108"}, "geometry": {"type": "Point", "coordinates": [35.95020331, -0.196935833]}}, {"type": "Feature", "properties": {"name": "05994 - SALOME NJERI AND OTHE", "substation": "05994", "primaryfee": "UNIVERSITY FEEDER EX KABARAK", "primaysubs": "KABARAK 33/11 SUBSTATION", "county": "Nakuru", "internalsb": 300638486.0, "customerss": 109.0, "physicallo": "LOWER MANGU", "pk": "1110"}, "geometry": {"type": "Point", "coordinates": [35.95621389, -0.201122139]}}, {"type": "Feature", "properties": {"name": "05993 - Salome Njeri AND Other", "substation": "05993", "primaryfee": "UNIVERSITY FEEDER EX KABARAK", "primaysubs": "KABARAK 33/11 SUBSTATION", "county": "Nakuru", "internalsb": 300638487.0, "customerss": 169.0, "physicallo": "MANGU", "pk": "1111"}, "geometry": {"type": "Point", "coordinates": [35.95324917, -0.199015556]}}, {"type": "Feature", "properties": {"name": "05996 - Salome Njeri AND Other", "substation": "05996", "primaryfee": "UNIVERSITY FEEDER EX KABARAK", "primaysubs": "KABARAK 33/11 SUBSTATION", "county": "Nakuru", "internalsb": 300638489.0, "customerss": 109.0, "physicallo": "LOWER MANGU", "pk": "1113"}, "geometry": {"type": "Point", "coordinates": [35.93759917, -0.195893889]}}, {"type": "Feature", "properties": {"name": "05999 - Lower Mangu", "substation": "05999", "primaryfee": "UNIVERSITY FEEDER EX KABARAK", "primaysubs": "KABARAK 33/11 SUBSTATION", "county": "Nakuru", "internalsb": 300638492.0, "customerss": 228.0, "physicallo": "MANGU", "pk": "1114"}, "geometry": {"type": "Point", "coordinates": [35.93356792, -0.205569444]}}, {"type": "Feature", "properties": {"name": "16035 - MAI MAHIU DISPENSARY", "substation": "16035", "primaryfee": "TOWN 11KV EX MAI MAHIU", "primaysubs": "MAI MAHIU 66/11 SUB STATION", "county": "Nakuru", "internalsb": 300634219.0, "customerss": 1265.0, "physicallo": "MAI MAHIU HEALTH CENTER", "pk": "1062"}, "geometry": {"type": "Point", "coordinates": [36.58387292, -0.977935]}}, {"type": "Feature", "properties": {"name": "05931 - SHALIMAR PUMP HOUSE", "substation": "05931", "primaryfee": "NORTH SHORE 11KV EX MARUL", "primaysubs": "MARULA", "county": "Nakuru", "internalsb": 300605852.0, "customerss": 440.0, "physicallo": "shalimar farm", "pk": "5"}, "geometry": {"type": "Point", "coordinates": [36.28837056, -0.7106975]}}, {"type": "Feature", "properties": {"name": "17020 - Mangu Farm", "substation": "17020", "primaryfee": "UNIVERSITY FEEDER EX KABARAK", "primaysubs": "KABARAK 33/11 SUBSTATION", "county": "Nakuru", "internalsb": 300639123.0, "customerss": 124.0, "physicallo": "MANGU", "pk": "1136"}, "geometry": {"type": "Point", "coordinates": [35.94999583, -0.212676944]}}, {"type": "Feature", "properties": {"name": "17045 - KIROBON FARM", "substation": "17045", "primaryfee": "UNIVERSITY FEEDER EX KABARAK", "primaysubs": "KABARAK 33/11 SUBSTATION", "county": "Nakuru", "internalsb": 300639142.0, "customerss": 94.0, "physicallo": "kiroboni", "pk": "1138"}, "geometry": {"type": "Point", "coordinates": [36.00500889, -0.2596325]}}, {"type": "Feature", "properties": {"name": "17019 - Mangu Farm", "substation": "17019", "primaryfee": "UNIVERSITY FEEDER EX KABARAK", "primaysubs": "KABARAK 33/11 SUBSTATION", "county": "Nakuru", "internalsb": 300639160.0, "customerss": 167.0, "physicallo": "MANGU", "pk": "1139"}, "geometry": {"type": "Point", "coordinates": [35.94680694, -0.210741111]}}, {"type": "Feature", "properties": {"name": "17002 - Mangu Farm", "substation": "17002", "primaryfee": "UNIVERSITY FEEDER EX KABARAK", "primaysubs": "KABARAK 33/11 SUBSTATION", "county": "Nakuru", "internalsb": 300639163.0, "customerss": 185.0, "physicallo": "MANGU", "pk": "1141"}, "geometry": {"type": "Point", "coordinates": [35.94353861, -0.209034722]}}, {"type": "Feature", "properties": {"name": "17065 - BARINA ESTATE  WORK S", "substation": "17065", "primaryfee": "NYAHURURU/MARALAL 33Kv L1", "primaysubs": "LANET SUBSTATION", "county": "Nakuru", "internalsb": 300649865.0, "customerss": 8.0, "physicallo": "barina workshop", "pk": "1401"}, "geometry": {"type": "Point", "coordinates": [36.01506139, -0.084209917]}}, {"type": "Feature", "properties": {"name": "17066 - ARAHUKA", "substation": "17066", "primaryfee": "NYAHURURU/MARALAL 33Kv L1", "primaysubs": "LANET SUBSTATION", "county": "Nakuru", "internalsb": 300649884.0, "customerss": 114.0, "physicallo": "KIRIMA AREA", "pk": "1411"}, "geometry": {"type": "Point", "coordinates": [36.06185306, -0.157486111]}}, {"type": "Feature", "properties": {"name": "17043 - KILOBON FARM B", "substation": "17043", "primaryfee": "UNIVERSITY FEEDER EX KABARAK", "primaysubs": "KABARAK 33/11 SUBSTATION", "county": "Nakuru", "internalsb": 300663519.0, "customerss": 46.0, "physicallo": "KILOBON", "pk": "1616"}, "geometry": {"type": "Point", "coordinates": [36.00024592, -0.251874528]}}, {"type": "Feature", "properties": {"name": "17044 - KILOBON FARM B", "substation": "17044", "primaryfee": "UNIVERSITY FEEDER EX KABARAK", "primaysubs": "KABARAK 33/11 SUBSTATION", "county": "Nakuru", "internalsb": 300663520.0, "customerss": 36.0, "physicallo": "KILOBON", "pk": "1617"}, "geometry": {"type": "Point", "coordinates": [36.00066536, -0.255524444]}}, {"type": "Feature", "properties": {"name": "17112 - KNIGHTNGALE KARATI", "substation": "17112", "primaryfee": "GILGIL INTERCONN 33KV EX SUSWA", "primaysubs": "NAIVASHA SUBSTATION", "county": "Nakuru", "internalsb": 300609367.0, "customerss": 186.0, "physicallo": "KIHOTO/ NIGHT NGALE FARM", "pk": "489"}, "geometry": {"type": "Point", "coordinates": [36.48430614, -0.642601389]}}, {"type": "Feature", "properties": {"name": "17114 - Pro. George Saitoti", "substation": "17114", "primaryfee": "RONGAI OLENGURUONE33K EX SOILO", "primaysubs": "NAKURU WEST (SOILO)  SUBSTATION", "county": "Nakuru", "internalsb": 300611046.0, "customerss": 108.0, "physicallo": "GEORGe saitoti farM", "pk": "796"}, "geometry": {"type": "Point", "coordinates": [35.69411444, -0.361777222]}}, {"type": "Feature", "properties": {"name": "17087 - Kanyotu Farm Solai", "substation": "17087", "primaryfee": "NYAHURURU/MARALAL 33Kv L1", "primaysubs": "LANET SUBSTATION", "county": "Nakuru", "internalsb": 300611151.0, "customerss": 6.0, "physicallo": "ALBANITA", "pk": "856"}, "geometry": {"type": "Point", "coordinates": [36.09549694, -0.1206925]}}, {"type": "Feature", "properties": {"name": "17089 - Njehias Farm", "substation": "17089", "primaryfee": "NYAHURURU/MARALAL 33Kv L1", "primaysubs": "LANET SUBSTATION", "county": "Nakuru", "internalsb": 300611153.0, "customerss": 158.0, "physicallo": "NJEHIA'S FARM", "pk": "858"}, "geometry": {"type": "Point", "coordinates": [36.09108472, -0.103856111]}}, {"type": "Feature", "properties": {"name": "17145 - Majani Mingi Sisal F", "substation": "17145", "primaryfee": "NYAHURURU/MARALAL 33Kv L1", "primaysubs": "LANET SUBSTATION", "county": "Nakuru", "internalsb": 300611161.0, "customerss": 400.0, "physicallo": "sisal farm", "pk": "863"}, "geometry": {"type": "Point", "coordinates": [36.02496583, -0.050101944]}}, {"type": "Feature", "properties": {"name": "17086 - Local Supply_Rve8", "substation": "17086", "primaryfee": "NYAHURURU/MARALAL 33Kv L1", "primaysubs": "LANET SUBSTATION", "county": "Nakuru", "internalsb": 300611195.0, "customerss": 0.0, "physicallo": "LOCAL WATER TREATMENT PLANT", "pk": "866"}, "geometry": {"type": "Point", "coordinates": [36.11697486, -0.149123889]}}, {"type": "Feature", "properties": {"name": "17099 - Ngenda Ranching Co.", "substation": "17099", "primaryfee": "NYAHURURU/MARALAL 33Kv L1", "primaysubs": "LANET SUBSTATION", "county": "Nakuru", "internalsb": 300611203.0, "customerss": 0.0, "physicallo": "ngenda ranch", "pk": "874"}, "geometry": {"type": "Point", "coordinates": [36.12054556, -0.123985833]}}, {"type": "Feature", "properties": {"name": "17135 - KIROBON B;; FARM NJORO", "substation": "17135", "primaryfee": "RONGAI OLENGURUONE33K EX SOILO", "primaysubs": "NAKURU WEST (SOILO)  SUBSTATION", "county": "Nakuru", "internalsb": 300666828.0, "customerss": 147.0, "physicallo": "fair view estate", "pk": "1665"}, "geometry": {"type": "Point", "coordinates": [35.99284278, -0.255647222]}}, {"type": "Feature", "properties": {"name": "17277 - Muchorwi  T/Centre", "substation": "17277", "primaryfee": "RONGAI OLENGURUONE33K EX SOILO", "primaysubs": "NAKURU WEST (SOILO)  SUBSTATION", "county": "Nakuru", "internalsb": 300610983.0, "customerss": 116.0, "physicallo": "near muchorwe  center", "pk": "785"}, "geometry": {"type": "Point", "coordinates": [35.68533131, -0.328257778]}}, {"type": "Feature", "properties": {"name": "17292 - Keringet Trading Cente", "substation": "17292", "primaryfee": "RONGAI OLENGURUONE33K EX SOILO", "primaysubs": "NAKURU WEST (SOILO)  SUBSTATION", "county": "Nakuru", "internalsb": 300611055.0, "customerss": 1822.0, "physicallo": "seventh day adventist church", "pk": "803"}, "geometry": {"type": "Point", "coordinates": [35.68848528, -0.427491389]}}, {"type": "Feature", "properties": {"name": "17294 - Tendwet T. Centre", "substation": "17294", "primaryfee": "RONGAI OLENGURUONE33K EX SOILO", "primaysubs": "NAKURU WEST (SOILO)  SUBSTATION", "county": "Nakuru", "internalsb": 300611062.0, "customerss": 2911.0, "physicallo": "next to kapkiam general shop", "pk": "809"}, "geometry": {"type": "Point", "coordinates": [35.69747361, -0.505298333]}}, {"type": "Feature", "properties": {"name": "17296 - Kiptenden Pri. School", "substation": "17296", "primaryfee": "RONGAI OLENGURUONE33K EX SOILO", "primaysubs": "NAKURU WEST (SOILO)  SUBSTATION", "county": "Nakuru", "internalsb": 300611070.0, "customerss": 152.0, "physicallo": "kabartonjo", "pk": "811"}, "geometry": {"type": "Point", "coordinates": [35.70146889, -0.563835833]}}, {"type": "Feature", "properties": {"name": "17299 - Olenguluone Town", "substation": "17299", "primaryfee": "RONGAI OLENGURUONE33K EX SOILO", "primaysubs": "NAKURU WEST (SOILO)  SUBSTATION", "county": "Nakuru", "internalsb": 300611077.0, "customerss": 998.0, "physicallo": "Olenguluone town", "pk": "816"}, "geometry": {"type": "Point", "coordinates": [35.68584961, -0.588506667]}}, {"type": "Feature", "properties": {"name": "17232 - 15 Applicants Kiamun", "substation": "17232", "primaryfee": "NYAHURURU/MARALAL 33Kv L1", "primaysubs": "LANET SUBSTATION", "county": "Nakuru", "internalsb": 300648544.0, "customerss": 297.0, "physicallo": "kiamunyeki", "pk": "1332"}, "geometry": {"type": "Point", "coordinates": [36.13983083, -0.275221389]}}, {"type": "Feature", "properties": {"name": "17305 - Koitabai W/Group", "substation": "17305", "primaryfee": "UNIVERSITY FEEDER EX KABARAK", "primaysubs": "KABARAK 33/11 SUBSTATION", "county": "Nakuru", "internalsb": 300639852.0, "customerss": 195.0, "physicallo": "near koitabai posho mill", "pk": "1156"}, "geometry": {"type": "Point", "coordinates": [35.90789528, -0.167078944]}}, {"type": "Feature", "properties": {"name": "17332 - PROF.AGGREY SINDABI.", "substation": "17332", "primaryfee": "GILGIL /MARULA EX LANET", "primaysubs": "LANET SUBSTATION", "county": "Nakuru", "internalsb": 300639853.0, "customerss": 30.0, "physicallo": "green park", "pk": "1157"}, "geometry": {"type": "Point", "coordinates": [36.29999056, -0.671576944]}}, {"type": "Feature", "properties": {"name": "17323 - OSERIAN TELECOM", "substation": "17323", "primaryfee": "NORTH LAKE SHORE 11KV EX", "primaysubs": "DCK", "county": "Nakuru", "internalsb": 300642289.0, "customerss": 83.0, "physicallo": "OSERIAN", "pk": "1169"}, "geometry": {"type": "Point", "coordinates": [36.2983075, -0.821962778]}}, {"type": "Feature", "properties": {"name": "17488 - greenpark", "substation": "17488", "primaryfee": "GILGIL /MARULA EX LANET", "primaysubs": "LANET SUBSTATION", "county": "Nakuru", "internalsb": 300608619.0, "customerss": 196.0, "physicallo": "near great view lodge", "pk": "347"}, "geometry": {"type": "Point", "coordinates": [36.32141944, -0.668008056]}}, {"type": "Feature", "properties": {"name": "17427 - Savanna Saw Mill", "substation": "17427", "primaryfee": "MENENGAI 11KV EX NAKURU", "primaysubs": "NAKURU DEPOT", "county": "Nakuru", "internalsb": 300609992.0, "customerss": 169.0, "physicallo": "Tai feeds", "pk": "514"}, "geometry": {"type": "Point", "coordinates": [36.04896472, -0.277187222]}}, {"type": "Feature", "properties": {"name": "17445 - Chesakau", "substation": "17445", "primaryfee": "UNIVERSITY FEEDER EX KABARAK", "primaysubs": "KABARAK 33/11 SUBSTATION", "county": "Nakuru", "internalsb": 300639998.0, "customerss": 47.0, "physicallo": "kabaraka", "pk": "1163"}, "geometry": {"type": "Point", "coordinates": [35.93202333, -0.131686389]}}, {"type": "Feature", "properties": {"name": "17431 - silom international", "substation": "17431", "primaryfee": "SOUTH EX LANET", "primaysubs": "LANET SUBSTATION", "county": "Nakuru", "internalsb": 300648831.0, "customerss": 1883.0, "physicallo": "emmanuel baptist church", "pk": "1364"}, "geometry": {"type": "Point", "coordinates": [36.08663139, -0.294416944]}}, {"type": "Feature", "properties": {"name": "17555 - TESOT  FARM", "substation": "17555", "primaryfee": "RONGAI OLENGURUONE33K EX SOILO", "primaysubs": "NAKURU WEST (SOILO)  SUBSTATION", "county": "Nakuru", "internalsb": 300610987.0, "customerss": 35.0, "physicallo": "near tarakwa primary sch", "pk": "789"}, "geometry": {"type": "Point", "coordinates": [35.65229114, -0.410175833]}}, {"type": "Feature", "properties": {"name": "17648 - GICHUHI & OTHERS", "substation": "17648", "primaryfee": "NYAHURURU/MARALAL 33Kv L1", "primaysubs": "LANET SUBSTATION", "county": "Nakuru", "internalsb": 300611112.0, "customerss": 231.0, "physicallo": "kirathimo", "pk": "837"}, "geometry": {"type": "Point", "coordinates": [36.13169806, -0.243725556]}}, {"type": "Feature", "properties": {"name": "17646 - BISHOP KIMANI & OTHERS", "substation": "17646", "primaryfee": "MAILI SABA TOWNFEEDER EXBAHATI", "primaysubs": "BAHATI  33/11KV  S/STN", "county": "Nakuru", "internalsb": 300611975.0, "customerss": 87.0, "physicallo": "MAMA NJIRI SHAMBA", "pk": "972"}, "geometry": {"type": "Point", "coordinates": [36.13912139, -0.184982778]}}, {"type": "Feature", "properties": {"name": "17645 - BISHOP KIMANI & OTHERS", "substation": "17645", "primaryfee": "MAILI SABA TOWNFEEDER EXBAHATI", "primaysubs": "LANET SUBSTATION", "county": "Nakuru", "internalsb": 300611976.0, "customerss": 207.0, "physicallo": "Hon bishop kimani", "pk": "973"}, "geometry": {"type": "Point", "coordinates": [36.13108417, -0.183288056]}}, {"type": "Feature", "properties": {"name": "17588. - MOSES NYABUTO,MAWANGA", "substation": "17588.", "primaryfee": "MAILI SABA TOWNFEEDER EXBAHATI", "primaysubs": "BAHATI  33/11KV  S/STN", "county": "Nakuru", "internalsb": 300612293.0, "customerss": 1668.0, "physicallo": "mawanga", "pk": "980"}, "geometry": {"type": "Point", "coordinates": [36.11097361, -0.266988083]}}, {"type": "Feature", "properties": {"name": "17568 - Sigilai Centre", "substation": "17568", "primaryfee": "RONGAI TOWN 11KV EX RONGA", "primaysubs": "RONGAI", "county": "Nakuru", "internalsb": 300631212.0, "customerss": 48.0, "physicallo": "Kware", "pk": "1023"}, "geometry": {"type": "Point", "coordinates": [35.81449556, -0.144276667]}}, {"type": "Feature", "properties": {"name": "18512 - GOVERNMENT AVENUE", "substation": "18512", "primaryfee": "NAKURU TOWN 11KV EX NAKURU", "primaysubs": "NAKURU DEPOT", "county": "Nakuru", "internalsb": 300610032.0, "customerss": 695.0, "physicallo": "autorect motors", "pk": "525"}, "geometry": {"type": "Point", "coordinates": [36.06809069, -0.286903611]}}, {"type": "Feature", "properties": {"name": "18513 - REIGNFORCEMENT", "substation": "18513", "primaryfee": "NAKURU TOWN 11KV EX NAKURU", "primaysubs": "NAKURU DEPOT", "county": "Nakuru", "internalsb": 300610035.0, "customerss": 630.0, "physicallo": "gillani supermarket", "pk": "528"}, "geometry": {"type": "Point", "coordinates": [36.07116917, -0.285306667]}}, {"type": "Feature", "properties": {"name": "18495 - RONALD NGALA RD", "substation": "18495", "primaryfee": "SOUTH 11KV EX NAKURU", "primaysubs": "NAKURU DEPOT", "county": "Nakuru", "internalsb": 300610040.0, "customerss": 382.0, "physicallo": "7th day church", "pk": "532"}, "geometry": {"type": "Point", "coordinates": [36.06666997, -0.292544444]}}, {"type": "Feature", "properties": {"name": "05065 - Lanet Petrol Station", "substation": "05065", "primaryfee": "NORTH 11Kv EX LANET", "primaysubs": "LANET SUBSTATION", "county": "Nakuru", "internalsb": 300607323.0, "customerss": 405.0, "physicallo": "lanet", "pk": "91"}, "geometry": {"type": "Point", "coordinates": [36.13577558, -0.297459167]}}, {"type": "Feature", "properties": {"name": "05067 - Preirie Estate No 2", "substation": "05067", "primaryfee": "NORTH 11Kv EX LANET", "primaysubs": "LANET SUBSTATION", "county": "Nakuru", "internalsb": 300607324.0, "customerss": 267.0, "physicallo": "LANET AREA", "pk": "92"}, "geometry": {"type": "Point", "coordinates": [36.13959111, -0.292664167]}}, {"type": "Feature", "properties": {"name": "18514 - SYSTEM REINFOR-NKU(TA", "substation": "18514", "primaryfee": "SOUTH 11KV EX NAKURU", "primaysubs": "NAKURU DEPOT", "county": "Nakuru", "internalsb": 300659559.0, "customerss": 28696.0, "physicallo": "along mariakani rd", "pk": "1562"}, "geometry": {"type": "Point", "coordinates": [36.05599667, -0.298534167]}}, {"type": "Feature", "properties": {"name": "18516 - SKOINANGE ESTATE", "substation": "18516", "primaryfee": "SOUTH 11KV EX NAKURU", "primaysubs": "NAKURU DEPOT", "county": "Nakuru", "internalsb": 300659719.0, "customerss": 1783.0, "physicallo": "eagles saints cathedral", "pk": "1570"}, "geometry": {"type": "Point", "coordinates": [36.05321194, -0.2937925]}}, {"type": "Feature", "properties": {"name": "18626 - KIANJOYA B/H", "substation": "18626", "primaryfee": "GILGIL /MARULA EX LANET", "primaysubs": "LANET SUBSTATION", "county": "Nakuru", "internalsb": 300608165.0, "customerss": 116.0, "physicallo": "KIANJOYA BORE HOLE", "pk": "324"}, "geometry": {"type": "Point", "coordinates": [36.05521917, -0.538506389]}}, {"type": "Feature", "properties": {"name": "18627 - MWISHO WA LAMI", "substation": "18627", "primaryfee": "GILGIL /MARULA EX LANET", "primaysubs": "LANET SUBSTATION", "county": "Nakuru", "internalsb": 300608168.0, "customerss": 110.0, "physicallo": "MWISHO WA LAMI TC", "pk": "327"}, "geometry": {"type": "Point", "coordinates": [35.996445, -0.632644722]}}, {"type": "Feature", "properties": {"name": "18628 - MUTUKANIO", "substation": "18628", "primaryfee": "GILGIL /MARULA EX LANET", "primaysubs": "LANET SUBSTATION", "county": "Nakuru", "internalsb": 300608171.0, "customerss": 23.0, "physicallo": "MWISHO WA LAMI", "pk": "330"}, "geometry": {"type": "Point", "coordinates": [35.98315944, -0.631543333]}}, {"type": "Feature", "properties": {"name": "18639 - RONDA EST.", "substation": "18639", "primaryfee": "RACE TRACK 11KV EX MWARIKI", "primaysubs": "MWARIKI 33/11KV", "county": "Nakuru", "internalsb": 300610105.0, "customerss": 1164.0, "physicallo": "precious sand sec school/posta", "pk": "579"}, "geometry": {"type": "Point", "coordinates": [36.05045114, -0.304680833]}}, {"type": "Feature", "properties": {"name": "18636 - RONDA EST.", "substation": "18636", "primaryfee": "RACE TRACK 11KV EX MWARIKI", "primaysubs": "MWARIKI 33/11KV", "county": "Nakuru", "internalsb": 300610107.0, "customerss": 1464.0, "physicallo": "bridge school", "pk": "580"}, "geometry": {"type": "Point", "coordinates": [36.0569075, -0.313766389]}}, {"type": "Feature", "properties": {"name": "18599 -  MUKARAFU KAPTEMBWO", "substation": "18599", "primaryfee": "SOUTH 11KV EX NAKURU", "primaysubs": "NAKURU DEPOT", "county": "Nakuru", "internalsb": 300659566.0, "customerss": 2020.0, "physicallo": "Muslim", "pk": "1567"}, "geometry": {"type": "Point", "coordinates": [36.05015586, -0.294662778]}}, {"type": "Feature", "properties": {"name": "18598 - MASHIMONI", "substation": "18598", "primaryfee": "SOUTH 11KV EX NAKURU", "primaysubs": "NAKURU DEPOT", "county": "Nakuru", "internalsb": 300659568.0, "customerss": 1699.0, "physicallo": "near club vision", "pk": "1569"}, "geometry": {"type": "Point", "coordinates": [36.04678722, -0.293563333]}}, {"type": "Feature", "properties": {"name": "101319 - CHEMASES C B C", "substation": "101319", "primaryfee": "NYAHURURU/MARALAL 33Kv L1", "primaysubs": "LANET SUBSTATION", "county": "Nakuru", "internalsb": 300673882.0, "customerss": 0.0, "physicallo": "NYAHURURU", "pk": "1778"}, "geometry": {"type": "Point", "coordinates": [36.11221778, -0.018892333]}}, {"type": "Feature", "properties": {"name": "101343 - JERUSALEM", "substation": "101343", "primaryfee": "MOLO 11KV EX ELBURGON", "primaysubs": "ELBURGON", "county": "Nakuru", "internalsb": 300673906.0, "customerss": 75.0, "physicallo": "EBURGON", "pk": "1782"}, "geometry": {"type": "Point", "coordinates": [35.80179889, -0.307432222]}}, {"type": "Feature", "properties": {"name": "101876 - NEAR CANAAN", "substation": "101876", "primaryfee": "TOWN 11KV EX MAI MAHIU", "primaysubs": "MAI MAHIU 66/11 SUB STATION", "county": "Nakuru", "internalsb": 300674400.0, "customerss": 3.0, "physicallo": "mai mahiu town", "pk": "1786"}, "geometry": {"type": "Point", "coordinates": [36.5803675, -0.985189417]}}, {"type": "Feature", "properties": {"name": "17808 - TRENT NIGEL", "substation": "17808", "primaryfee": "GILGIL TOWN 11KV EX GILGI", "primaysubs": "GILGIL", "county": "Nakuru", "internalsb": 300607857.0, "customerss": 51.0, "physicallo": "Ridge View", "pk": "226"}, "geometry": {"type": "Point", "coordinates": [36.36113389, -0.474262222]}}, {"type": "Feature", "properties": {"name": "17816 - MIRERA FARM", "substation": "17816", "primaryfee": "KIHOTO SOUTHLAKE 11KV", "primaysubs": "KIHOTO SUBSTATION", "county": "Nakuru", "internalsb": 300607944.0, "customerss": 220.0, "physicallo": "MIRERA FARM", "pk": "243"}, "geometry": {"type": "Point", "coordinates": [36.43676583, -0.793276389]}}, {"type": "Feature", "properties": {"name": "17826 - TAYARI FARM", "substation": "17826", "primaryfee": "GILGIL INTERCONN 33KV EX SUSWA", "primaysubs": "NAIVASHA SUBSTATION", "county": "Nakuru", "internalsb": 300609334.0, "customerss": 259.0, "physicallo": "KARAI PR  SCH", "pk": "472"}, "geometry": {"type": "Point", "coordinates": [36.47659861, -0.763134722]}}, {"type": "Feature", "properties": {"name": "17841 - NYONDIA", "substation": "17841", "primaryfee": "GILGIL INTERCONN 33KV EX SUSWA", "primaysubs": "NAIVASHA SUBSTATION", "county": "Nakuru", "internalsb": 300609344.0, "customerss": 99.0, "physicallo": "Near Emmanuel Fellowship New", "pk": "479"}, "geometry": {"type": "Point", "coordinates": [36.46764878, -0.709341667]}}, {"type": "Feature", "properties": {"name": "17857 - TOMBO WATER PROJECT", "substation": "17857", "primaryfee": "MOLO 11KV EX ELBURGON", "primaysubs": "ELBURGON", "county": "Nakuru", "internalsb": 300610865.0, "customerss": 103.0, "physicallo": "Mary Mother of God secondary", "pk": "746"}, "geometry": {"type": "Point", "coordinates": [35.69961222, -0.241375556]}}, {"type": "Feature", "properties": {"name": "17907 - MWIGITO VILLAGE", "substation": "17907", "primaryfee": "CAMP  EX LANET", "primaysubs": "LANET SUBSTATION", "county": "Nakuru", "internalsb": 300611623.0, "customerss": 64.0, "physicallo": "mwigito village", "pk": "930"}, "geometry": {"type": "Point", "coordinates": [36.19750139, -0.275944167]}}, {"type": "Feature", "properties": {"name": "17909 - MENENGAI MRK SOCIETY", "substation": "17909", "primaryfee": "CAMP  EX LANET", "primaysubs": "LANET SUBSTATION", "county": "Nakuru", "internalsb": 300650003.0, "customerss": 84.0, "physicallo": "menengai MRK society", "pk": "1433"}, "geometry": {"type": "Point", "coordinates": [36.20646556, -0.281665]}}, {"type": "Feature", "properties": {"name": "17971 - MARY GITEMA", "substation": "17971", "primaryfee": "GILGIL /MARULA EX LANET", "primaysubs": "LANET SUBSTATION", "county": "Nakuru", "internalsb": 300607767.0, "customerss": 0.0, "physicallo": "NGOROVA AREA", "pk": "170"}, "geometry": {"type": "Point", "coordinates": [36.14808194, -0.341456667]}}, {"type": "Feature", "properties": {"name": "17972 - CARZAN", "substation": "17972", "primaryfee": "RONGAI TOWN 11KV EX RONGA", "primaysubs": "RONGAI", "county": "Nakuru", "internalsb": 300647954.0, "customerss": 0.0, "physicallo": "carzon flowers", "pk": "1305"}, "geometry": {"type": "Point", "coordinates": [35.86738528, -0.182831667]}}, {"type": "Feature", "properties": {"name": "18218 - National Cereals_Solai", "substation": "18218", "primaryfee": "NYAHURURU/MARALAL 33Kv L1", "primaysubs": "LANET SUBSTATION", "county": "Nakuru", "internalsb": 300634308.0, "customerss": 36.0, "physicallo": "national cereals", "pk": "1070"}, "geometry": {"type": "Point", "coordinates": [36.10738278, -0.033836139]}}, {"type": "Feature", "properties": {"name": "18207 - ALICE WAMBOI & OTHERS", "substation": "18207", "primaryfee": "NORTH 11Kv EX LANET", "primaysubs": "LANET SUBSTATION", "county": "Nakuru", "internalsb": 300634309.0, "customerss": 635.0, "physicallo": "NAKURU", "pk": "1071"}, "geometry": {"type": "Point", "coordinates": [36.12560667, -0.277161667]}}, {"type": "Feature", "properties": {"name": "18200 - KITI", "substation": "18200", "primaryfee": "NORTH 11Kv EX LANET", "primaysubs": "LANET SUBSTATION", "county": "Nakuru", "internalsb": 300634310.0, "customerss": 2456.0, "physicallo": "BAHATI RD/BAHATI", "pk": "1072"}, "geometry": {"type": "Point", "coordinates": [36.09975278, -0.268367694]}}, {"type": "Feature", "properties": {"name": "18161 - NAKURU WEST SECONDARY", "substation": "18161", "primaryfee": "SOUTH 11KV EX NAKURU", "primaysubs": "NAKURU DEPOT", "county": "Nakuru", "internalsb": 300658002.0, "customerss": 16828.0, "physicallo": "nakuru west sec school", "pk": "1555"}, "geometry": {"type": "Point", "coordinates": [36.04161333, -0.300189194]}}, {"type": "Feature", "properties": {"name": "18275 - SYS REIN KIHOTO", "substation": "18275", "primaryfee": "KIRENGERO 11KV EX SUBUKIA", "primaysubs": "SUBUKIA", "county": "Nakuru", "internalsb": 300652413.0, "customerss": 215.0, "physicallo": "KIHOTO FARM", "pk": "1479"}, "geometry": {"type": "Point", "coordinates": [36.17629278, -0.078090833]}}, {"type": "Feature", "properties": {"name": "18340 - NO NAME", "substation": "18340", "primaryfee": "KIHOTO NAIVASHA TOWN 11KV", "primaysubs": "KIHOTO SUBSTATION", "county": "Nakuru", "internalsb": 300609147.0, "customerss": 696.0, "physicallo": "KABATI AREA.", "pk": "448"}, "geometry": {"type": "Point", "coordinates": [36.44347861, -0.718070167]}}, {"type": "Feature", "properties": {"name": "18338 - KABATINI REINFORCEMENT", "substation": "18338", "primaryfee": "KIHOTO NAIVASHA TOWN 11KV", "primaysubs": "KIHOTO SUBSTATION", "county": "Nakuru", "internalsb": 300609148.0, "customerss": 662.0, "physicallo": "Near COOL GUEST HOUSE", "pk": "449"}, "geometry": {"type": "Point", "coordinates": [36.44709944, -0.719765833]}}, {"type": "Feature", "properties": {"name": "18363 - ST JUDE CATHOLIC", "substation": "18363", "primaryfee": "RONGAI OLENGURUONE33K EX SOILO", "primaysubs": "NAKURU WEST (SOILO)  SUBSTATION", "county": "Nakuru", "internalsb": 300646697.0, "customerss": 38.0, "physicallo": "behind st judes catholic chur", "pk": "1264"}, "geometry": {"type": "Point", "coordinates": [35.70594306, -0.267479389]}}, {"type": "Feature", "properties": {"name": "18420 - SYSTEM REINF MOUNTAIN", "substation": "18420", "primaryfee": "NORTH 11Kv EX LANET", "primaysubs": "LANET SUBSTATION", "county": "Nakuru", "internalsb": 300607362.0, "customerss": 424.0, "physicallo": "NAKURU", "pk": "113"}, "geometry": {"type": "Point", "coordinates": [36.10123008, -0.282970833]}}, {"type": "Feature", "properties": {"name": "18466 - MARAIGUSHU TRADING CE", "substation": "18466", "primaryfee": "GILGIL INTERCONN 33KV EX SUSWA", "primaysubs": "NAIVASHA SUBSTATION", "county": "Nakuru", "internalsb": 300634181.0, "customerss": 100.0, "physicallo": "MARAIGUSHU TRADING CENTRE", "pk": "1058"}, "geometry": {"type": "Point", "coordinates": [36.52467167, -0.749817778]}}, {"type": "Feature", "properties": {"name": "04927 - MAGUMU REPEATER STN.", "substation": "04927", "primaryfee": "SATELITE EX MAGUMU", "primaysubs": "MAGUMU 33/11 KV SUBSTATION", "county": "Nakuru", "internalsb": 300004548.0, "customerss": 182.0, "physicallo": "MAGUMU", "pk": "4"}, "geometry": {"type": "Point", "coordinates": [36.55308417, -0.8612125]}}, {"type": "Feature", "properties": {"name": "18436 - Kiamaina", "substation": "18436", "primaryfee": "NORTH 11Kv EX LANET", "primaysubs": "LANET SUBSTATION", "county": "Nakuru", "internalsb": 300634193.0, "customerss": 870.0, "physicallo": "EASTMORE", "pk": "1061"}, "geometry": {"type": "Point", "coordinates": [36.10778333, -0.276779444]}}, {"type": "Feature", "properties": {"name": "102060 - MENENGAI GEOTHERMAL", "substation": "102060", "primaryfee": "NYAHURURU/MARALAL 33Kv L1", "primaysubs": "LANET SUBSTATION", "county": "Nakuru", "internalsb": 300674586.0, "customerss": 4.0, "physicallo": "MENENGAI GDC COMPANY", "pk": "1795"}, "geometry": {"type": "Point", "coordinates": [36.05042764, -0.189998056]}}, {"type": "Feature", "properties": {"name": "18660 - KENLANDS", "substation": "18660", "primaryfee": "GILGIL TOWN 11KV EX GILGI", "primaysubs": "GILGIL", "county": "Nakuru", "internalsb": 300607800.0, "customerss": 1078.0, "physicallo": "KCB BANK", "pk": "197"}, "geometry": {"type": "Point", "coordinates": [36.32441111, -0.499973611]}}, {"type": "Feature", "properties": {"name": "18695 - RACE COURSE", "substation": "18695", "primaryfee": "RACE TRACK 11KV EX MWARIKI", "primaysubs": "NAKURU DEPOT", "county": "Nakuru", "internalsb": 300610073.0, "customerss": 765.0, "physicallo": "langa langa", "pk": "550"}, "geometry": {"type": "Point", "coordinates": [36.07211028, -0.305361667]}}, {"type": "Feature", "properties": {"name": "18696 - RACE COURSE", "substation": "18696", "primaryfee": "RACE TRACK 11KV EX MWARIKI", "primaysubs": "MWARIKI 33/11KV", "county": "Nakuru", "internalsb": 300610074.0, "customerss": 533.0, "physicallo": "behind carole school", "pk": "551"}, "geometry": {"type": "Point", "coordinates": [36.07216194, -0.306640833]}}, {"type": "Feature", "properties": {"name": "18659 - TOTEM AND OTHERS", "substation": "18659", "primaryfee": "RACE TRACK 11KV EX MWARIKI", "primaysubs": "MWARIKI 33/11KV", "county": "Nakuru", "internalsb": 300610094.0, "customerss": 1656.0, "physicallo": "OPPOSITE NYATI GUEST HOUSE", "pk": "570"}, "geometry": {"type": "Point", "coordinates": [36.06728294, -0.308361944]}}, {"type": "Feature", "properties": {"name": "18759 - NAKA ESTATE", "substation": "18759", "primaryfee": "SOUTH EX LANET", "primaysubs": "LANET SUBSTATION", "county": "Nakuru", "internalsb": 300610164.0, "customerss": 810.0, "physicallo": "Free Area Near Buffalo Restua", "pk": "611"}, "geometry": {"type": "Point", "coordinates": [36.12034944, -0.294401389]}}, {"type": "Feature", "properties": {"name": "18760 - NAKA ESTATE", "substation": "18760", "primaryfee": "SOUTH EX LANET", "primaysubs": "LANET SUBSTATION", "county": "Nakuru", "internalsb": 300610165.0, "customerss": 829.0, "physicallo": "Near L. Nakuru N. Park fence.", "pk": "612"}, "geometry": {"type": "Point", "coordinates": [36.11962528, -0.296089167]}}, {"type": "Feature", "properties": {"name": "18719 - S. KIMALEL RD", "substation": "18719", "primaryfee": "INTERCONNECTOR 1 EX LANET", "primaysubs": "LANET SUBSTATION", "county": "Nakuru", "internalsb": 300610170.0, "customerss": 835.0, "physicallo": "Kisulisuli Estate", "pk": "615"}, "geometry": {"type": "Point", "coordinates": [36.08667722, -0.290952222]}}, {"type": "Feature", "properties": {"name": "18683 - TIRIKI RD", "substation": "18683", "primaryfee": "MILIMANI  11KV  EX  NAKURU", "primaysubs": "NAKURU DEPOT", "county": "Nakuru", "internalsb": 300610211.0, "customerss": 117.0, "physicallo": "NAKURU", "pk": "631"}, "geometry": {"type": "Point", "coordinates": [36.06909319, -0.272213333]}}, {"type": "Feature", "properties": {"name": "18716 - SYSTEM REINFORCEMENT", "substation": "18716", "primaryfee": "NORTH 11Kv EX LANET", "primaysubs": "LANET SUBSTATION", "county": "Nakuru", "internalsb": 300650694.0, "customerss": 1544.0, "physicallo": "Kabatini Road Junction", "pk": "1457"}, "geometry": {"type": "Point", "coordinates": [36.11847575, -0.228608889]}}, {"type": "Feature", "properties": {"name": "18762 - moi girls sec.", "substation": "18762", "primaryfee": "MILIMANI  11KV  EX  NAKURU", "primaysubs": "NAKURU DEPOT", "county": "Nakuru", "internalsb": 300652936.0, "customerss": 429.0, "physicallo": "moi primary school", "pk": "1487"}, "geometry": {"type": "Point", "coordinates": [36.06558528, -0.2777475]}}, {"type": "Feature", "properties": {"name": "18813 - sys rein bishop kimani", "substation": "18813", "primaryfee": "MAILI SABA TOWNFEEDER EXBAHATI", "primaysubs": "LANET SUBSTATION", "county": "Nakuru", "internalsb": 300653886.0, "customerss": 321.0, "physicallo": "bishop kimani", "pk": "1534"}, "geometry": {"type": "Point", "coordinates": [36.1289175, -0.1884075]}}, {"type": "Feature", "properties": {"name": "18713 - REINFORCEMENT LAKE VI", "substation": "18713", "primaryfee": "GAME PARK 11KV EX MWARIKI", "primaysubs": "MWARIKI 33/11KV", "county": "Nakuru", "internalsb": 300663471.0, "customerss": 50.0, "physicallo": "lakes view area", "pk": "1603"}, "geometry": {"type": "Point", "coordinates": [36.08093194, -0.307127222]}}, {"type": "Feature", "properties": {"name": "169297 - Bondeni Rd./Masai Av", "substation": "18823", "primaryfee": "SOUTH EX LANET", "primaysubs": "LANET SUBSTATION", "county": "Nakuru", "internalsb": 300749081.0, "customerss": 441.0, "physicallo": "NAKURU", "pk": "2215"}, "geometry": {"type": "Point", "coordinates": [36.07565556, -0.288129167]}}, {"type": "Feature", "properties": {"name": "18859 - KIAMUNYEKI REINFORCEM", "substation": "18859", "primaryfee": "NYAHURURU/MARALAL 33Kv L1", "primaysubs": "LANET SUBSTATION", "county": "Nakuru", "internalsb": 300648541.0, "customerss": 48.0, "physicallo": "next soujanas accademey", "pk": "1330"}, "geometry": {"type": "Point", "coordinates": [36.14377083, -0.281175278]}}, {"type": "Feature", "properties": {"name": "18866 - Industrial Area", "substation": "18866", "primaryfee": "KIHOTO NAIVASHA TOWN 11KV", "primaysubs": "KIHOTO SUBSTATION", "county": "Nakuru", "internalsb": 300642569.0, "customerss": 1322.0, "physicallo": "communication aerial", "pk": "1195"}, "geometry": {"type": "Point", "coordinates": [36.43155333, -0.7139625]}}, {"type": "Feature", "properties": {"name": "18892 - systm reinforcement k", "substation": "18892", "primaryfee": "KIHOTO NAIVASHA TOWN 11KV", "primaysubs": "KIHOTO SUBSTATION", "county": "Nakuru", "internalsb": 300644237.0, "customerss": 343.0, "physicallo": "DELIVERENCE CHURCH", "pk": "1251"}, "geometry": {"type": "Point", "coordinates": [36.44271389, -0.730149167]}}, {"type": "Feature", "properties": {"name": "18897 - BETTY ACADEMY", "substation": "18897", "primaryfee": "KIHOTO NAIVASHA TOWN 11KV", "primaysubs": "KIHOTO SUBSTATION", "county": "Nakuru", "internalsb": 300644255.0, "customerss": 84.0, "physicallo": "betty academy", "pk": "1253"}, "geometry": {"type": "Point", "coordinates": [36.44533611, -0.734571944]}}, {"type": "Feature", "properties": {"name": "18874 - SYS REIN KARUNGA", "substation": "18874", "primaryfee": "MAILI SABA TOWNFEEDER EXBAHATI", "primaysubs": "LANET SUBSTATION", "county": "Nakuru", "internalsb": 300653821.0, "customerss": 44.0, "physicallo": "next to wheat farm", "pk": "1532"}, "geometry": {"type": "Point", "coordinates": [36.15289167, -0.193300278]}}, {"type": "Feature", "properties": {"name": "18938 - SYSTEM REINFORCEMENT", "substation": "18938", "primaryfee": "NYAHURURU/MARALAL 33Kv L1", "primaysubs": "LANET SUBSTATION", "county": "Nakuru", "internalsb": 300633722.0, "customerss": 987.0, "physicallo": "KIAMAINA", "pk": "1028"}, "geometry": {"type": "Point", "coordinates": [36.12163611, -0.231739444]}}, {"type": "Feature", "properties": {"name": "18941 - KIRENGERO", "substation": "18941", "primaryfee": "KIRENGERO 11KV EX SUBUKIA", "primaysubs": "SUBUKIA", "county": "Nakuru", "internalsb": 300633724.0, "customerss": 15.0, "physicallo": "near safaricom mast", "pk": "1029"}, "geometry": {"type": "Point", "coordinates": [36.17313361, -0.061139722]}}, {"type": "Feature", "properties": {"name": "18903 - SHAURI YAKO", "substation": "18903", "primaryfee": "GAME PARK 11KV EX MWARIKI", "primaysubs": "MWARIKI 33/11KV", "county": "Nakuru", "internalsb": 300633733.0, "customerss": 753.0, "physicallo": "On the wall of PCEA Dr. Arthu", "pk": "1030"}, "geometry": {"type": "Point", "coordinates": [36.07939667, -0.299926944]}}, {"type": "Feature", "properties": {"name": "18951 - Kapsita market", "substation": "18951", "primaryfee": "MOLO 11KV EX ELBURGON", "primaysubs": "ELBURGON", "county": "Nakuru", "internalsb": 300670049.0, "customerss": 36.0, "physicallo": "kapsita marked", "pk": "1734"}, "geometry": {"type": "Point", "coordinates": [35.77877028, -0.329626111]}}, {"type": "Feature", "properties": {"name": "18952 - kapsita market", "substation": "18952", "primaryfee": "MOLO 11KV EX ELBURGON", "primaysubs": "ELBURGON", "county": "Nakuru", "internalsb": 300670050.0, "customerss": 51.0, "physicallo": "kapsita market", "pk": "1735"}, "geometry": {"type": "Point", "coordinates": [35.78233083, -0.329641944]}}, {"type": "Feature", "properties": {"name": "18436B - CRATER NURSERY-NAKURU", "substation": "18436B", "primaryfee": "NORTH 11Kv EX LANET", "primaysubs": "LANET SUBSTATION", "county": "Nakuru", "internalsb": 300650649.0, "customerss": 1809.0, "physicallo": "ENGASHURA", "pk": "1443"}, "geometry": {"type": "Point", "coordinates": [36.10624722, -0.235027111]}}, {"type": "Feature", "properties": {"name": "35922_2 - KANJOKO", "substation": "35922_2", "primaryfee": "GILGIL INTERCONN 33KV EX SUSWA", "primaysubs": "NAIVASHA SUBSTATION", "county": "Nakuru", "internalsb": 300671859.0, "customerss": 94.0, "physicallo": "KANJOKO SHOPPING CENTER", "pk": "1748"}, "geometry": {"type": "Point", "coordinates": [36.50541889, -0.749761389]}}, {"type": "Feature", "properties": {"name": "17710D - 17710", "substation": "17710D", "primaryfee": "RONGAI OLENGURUONE33K EX SOILO", "primaysubs": "NAKURU WEST (SOILO)  SUBSTATION", "county": "Nakuru", "internalsb": 300705708.0, "customerss": 283.0, "physicallo": "OLENGURUONE", "pk": "1992"}, "geometry": {"type": "Point", "coordinates": [35.68560361, -0.591344444]}}, {"type": "Feature", "properties": {"name": "31485 - PRAYER BEYOND BOUNDAR", "substation": "31485", "primaryfee": "TOWN 11KV EX MAI MAHIU", "primaysubs": "MAI MAHIU 66/11 SUB STATION", "county": "Nakuru", "internalsb": 300643460.0, "customerss": 20.0, "physicallo": "prayer centre", "pk": "1229"}, "geometry": {"type": "Point", "coordinates": [36.55939917, -0.973261944]}}, {"type": "Feature", "properties": {"name": "31595 - KWA MUCHIRA", "substation": "31595", "primaryfee": "TOWN 11KV EX MAI MAHIU", "primaysubs": "MAI MAHIU 66/11 SUB STATION", "county": "Nakuru", "internalsb": 300643461.0, "customerss": 15.0, "physicallo": "homestead", "pk": "1230"}, "geometry": {"type": "Point", "coordinates": [36.57030722, -0.967032694]}}, {"type": "Feature", "properties": {"name": "33595 - SYSTEM REINFORCEMENT", "substation": "33595", "primaryfee": "TOWN 11KV EX MAI MAHIU", "primaysubs": "MAI MAHIU 66/11 SUB STATION", "county": "Nakuru", "internalsb": 300666521.0, "customerss": 12.0, "physicallo": "kiambogo ya gatagat\u00c3\u00ad", "pk": "1658"}, "geometry": {"type": "Point", "coordinates": [36.52381556, -0.867179167]}}, {"type": "Feature", "properties": {"name": "32733 - SYSTEM REINFORCEMENT", "substation": "32733", "primaryfee": "TOWN 11KV EX MAI MAHIU", "primaysubs": "MAI MAHIU 66/11 SUB STATION", "county": "Nakuru", "internalsb": 300667105.0, "customerss": 72.0, "physicallo": "MAI MAHIU", "pk": "1669"}, "geometry": {"type": "Point", "coordinates": [36.55448472, -0.938143056]}}, {"type": "Feature", "properties": {"name": "33601 - LONGONOT SHOPS B", "substation": "33601", "primaryfee": "TOWN 11KV EX MAI MAHIU", "primaysubs": "MAI MAHIU 66/11 SUB STATION", "county": "Nakuru", "internalsb": 300667480.0, "customerss": 39.0, "physicallo": "OFF LONGOT TOWN", "pk": "1674"}, "geometry": {"type": "Point", "coordinates": [36.49544611, -0.879861667]}}, {"type": "Feature", "properties": {"name": "32585 - KAMAKIA MAI MAHIU", "substation": "32585", "primaryfee": "TOWN 11KV EX MAI MAHIU", "primaysubs": "MAI MAHIU 66/11 SUB STATION", "county": "Nakuru", "internalsb": 300667481.0, "customerss": 0.0, "physicallo": "MAI MAHIU", "pk": "1675"}, "geometry": {"type": "Point", "coordinates": [36.57984389, -0.9900925]}}, {"type": "Feature", "properties": {"name": "34087 - REIN 5264 WANYORORO", "substation": "34087", "primaryfee": "CAMP  EX LANET", "primaysubs": "LANET SUBSTATION", "county": "Nakuru", "internalsb": 300649909.0, "customerss": 96.0, "physicallo": "rein", "pk": "1423"}, "geometry": {"type": "Point", "coordinates": [36.18736028, -0.250626528]}}, {"type": "Feature", "properties": {"name": "34119 - SETKIBOR SECONDARY SC", "substation": "34119", "primaryfee": "NYAHURURU/MARALAL 33Kv L1", "primaysubs": "LANET SUBSTATION", "county": "Nakuru", "internalsb": 300653312.0, "customerss": 48.0, "physicallo": "NEAR SET KIBOR SECONDARY SCHO", "pk": "1515"}, "geometry": {"type": "Point", "coordinates": [36.13555408, -0.022168611]}}, {"type": "Feature", "properties": {"name": "34237 - POROR", "substation": "34237", "primaryfee": "RONGAI OLENGURUONE33K EX SOILO", "primaysubs": "NAKURU WEST (SOILO)  SUBSTATION", "county": "Nakuru", "internalsb": 300647932.0, "customerss": 109.0, "physicallo": "near bororo school", "pk": "1300"}, "geometry": {"type": "Point", "coordinates": [35.84310667, -0.230141389]}}, {"type": "Feature", "properties": {"name": "34551 - KIMANGU", "substation": "34551", "primaryfee": "RONGAI TOWN 11KV EX RONGA", "primaysubs": "RONGAI", "county": "Nakuru", "internalsb": 300648204.0, "customerss": 6.0, "physicallo": "X BATRA", "pk": "1317"}, "geometry": {"type": "Point", "coordinates": [35.85970611, -0.14799]}}, {"type": "Feature", "properties": {"name": "05001 - NAWASCO WATER TANKS.", "substation": "05001", "primaryfee": "NORTH 11Kv EX LANET", "primaysubs": "LANET SUBSTATION", "county": "Nakuru", "internalsb": 300607364.0, "customerss": 42.0, "physicallo": "NAKURU", "pk": "115"}, "geometry": {"type": "Point", "coordinates": [36.09713667, -0.282397222]}}, {"type": "Feature", "properties": {"name": "34568 - MZEE WANYAMA", "substation": "34568", "primaryfee": "GILGIL /MARULA EX LANET", "primaysubs": "LANET SUBSTATION", "county": "Nakuru", "internalsb": 300650660.0, "customerss": 610.0, "physicallo": "Rhino Primary", "pk": "1448"}, "geometry": {"type": "Point", "coordinates": [36.14930361, -0.399305833]}}, {"type": "Feature", "properties": {"name": "34687 - MUCHORWE /AFRICA", "substation": "34687", "primaryfee": "MOLO 11KV EX ELBURGON", "primaysubs": "ELBURGON", "county": "Nakuru", "internalsb": 300648745.0, "customerss": 30.0, "physicallo": "african farm", "pk": "1350"}, "geometry": {"type": "Point", "coordinates": [35.67976417, -0.195157222]}}, {"type": "Feature", "properties": {"name": "34669 - SECTION 58", "substation": "34669", "primaryfee": "SOUTH EX LANET", "primaysubs": "LANET SUBSTATION", "county": "Nakuru", "internalsb": 300648800.0, "customerss": 1137.0, "physicallo": "KABASIA 1", "pk": "1360"}, "geometry": {"type": "Point", "coordinates": [36.08279222, -0.288620833]}}, {"type": "Feature", "properties": {"name": "34969 - C/BASE MAKARA KARATI", "substation": "34969", "primaryfee": "GILGIL INTERCONN 33KV EX SUSWA", "primaysubs": "NAIVASHA SUBSTATION", "county": "Nakuru", "internalsb": 300642480.0, "customerss": 66.0, "physicallo": "Kwa Magara Area", "pk": "1187"}, "geometry": {"type": "Point", "coordinates": [36.48402617, -0.694490833]}}, {"type": "Feature", "properties": {"name": "34746 - TERGAT", "substation": "34746", "primaryfee": "RONGAI OLENGURUONE33K EX SOILO", "primaysubs": "NAKURU WEST (SOILO)  SUBSTATION", "county": "Nakuru", "internalsb": 300647934.0, "customerss": 30.0, "physicallo": "tegat", "pk": "1301"}, "geometry": {"type": "Point", "coordinates": [35.81445333, -0.278725833]}}, {"type": "Feature", "properties": {"name": "34919 - C.B.C OLBANITA", "substation": "34919", "primaryfee": "NYAHURURU/MARALAL 33Kv L1", "primaysubs": "LANET SUBSTATION", "county": "Nakuru", "internalsb": 300649894.0, "customerss": 42.0, "physicallo": "IME", "pk": "1419"}, "geometry": {"type": "Point", "coordinates": [36.0403575, -0.121116944]}}, {"type": "Feature", "properties": {"name": "34938 - C B C WANYORORO", "substation": "34938", "primaryfee": "CAMP  EX LANET", "primaysubs": "LANET SUBSTATION", "county": "Nakuru", "internalsb": 300649960.0, "customerss": 60.0, "physicallo": "CBC Wanyororo", "pk": "1424"}, "geometry": {"type": "Point", "coordinates": [36.17594917, -0.249140278]}}, {"type": "Feature", "properties": {"name": "34939 - C B C WANYORORO", "substation": "34939", "primaryfee": "CAMP  EX LANET", "primaysubs": "LANET SUBSTATION", "county": "Nakuru", "internalsb": 300649962.0, "customerss": 144.0, "physicallo": "WANYORORO", "pk": "1425"}, "geometry": {"type": "Point", "coordinates": [36.17084417, -0.247765556]}}, {"type": "Feature", "properties": {"name": "102215 - KAPKORES PRIMARY SCH", "substation": "102215", "primaryfee": "RONGAI OLENGURUONE33K EX SOILO", "primaysubs": "NAKURU WEST (SOILO)  SUBSTATION", "county": "Nakuru", "internalsb": 300674745.0, "customerss": 3.0, "physicallo": "Kapkores Pry school", "pk": "1803"}, "geometry": {"type": "Point", "coordinates": [35.66641028, -0.448270278]}}, {"type": "Feature", "properties": {"name": "102217 - ST PAUL BORON SECOND", "substation": "102217", "primaryfee": "RONGAI OLENGURUONE33K EX SOILO", "primaysubs": "NAKURU WEST (SOILO)  SUBSTATION", "county": "Nakuru", "internalsb": 300674747.0, "customerss": 0.0, "physicallo": "st paul boron secondary schoo", "pk": "1804"}, "geometry": {"type": "Point", "coordinates": [35.54341639, -0.479999167]}}, {"type": "Feature", "properties": {"name": "102221 - MATUNDA PRIMARY SCHO", "substation": "102221", "primaryfee": "RONGAI OLENGURUONE33K EX SOILO", "primaysubs": "NAKURU WEST (SOILO)  SUBSTATION", "county": "Nakuru", "internalsb": 300674751.0, "customerss": 0.0, "physicallo": "matunda primary school", "pk": "1807"}, "geometry": {"type": "Point", "coordinates": [35.63224778, -0.39498]}}, {"type": "Feature", "properties": {"name": "102222 - KAPTELET PRIMARY SCH", "substation": "102222", "primaryfee": "RONGAI OLENGURUONE33K EX SOILO", "primaysubs": "NAKURU WEST (SOILO)  SUBSTATION", "county": "Nakuru", "internalsb": 300674752.0, "customerss": 0.0, "physicallo": "kaplele primary school", "pk": "1808"}, "geometry": {"type": "Point", "coordinates": [35.69594306, -0.392778056]}}, {"type": "Feature", "properties": {"name": "102223 - SEGUTON PRIMARY SCHO", "substation": "102223", "primaryfee": "RONGAI OLENGURUONE33K EX SOILO", "primaysubs": "NAKURU WEST (SOILO)  SUBSTATION", "county": "Nakuru", "internalsb": 300674753.0, "customerss": 0.0, "physicallo": "seguton primary school", "pk": "1809"}, "geometry": {"type": "Point", "coordinates": [35.67609417, -0.380000556]}}, {"type": "Feature", "properties": {"name": "17456 - Dr. Silverstein  & B", "substation": "17456", "primaryfee": "NORTH LAKE SHORE 11KV EX", "primaysubs": "DCK", "county": "Nakuru", "internalsb": 300607296.0, "customerss": 50.0, "physicallo": "Dr silverstein &b", "pk": "82"}, "geometry": {"type": "Point", "coordinates": [36.29305861, -0.779214444]}}, {"type": "Feature", "properties": {"name": "35246 - WAMKONG MARKET", "substation": "35246", "primaryfee": "RONGAI OLENGURUONE33K EX SOILO", "primaysubs": "NAKURU WEST (SOILO)  SUBSTATION", "county": "Nakuru", "internalsb": 300647878.0, "customerss": 26.0, "physicallo": "near wamkog market", "pk": "1293"}, "geometry": {"type": "Point", "coordinates": [35.63006417, -0.584275139]}}, {"type": "Feature", "properties": {"name": "35247 - WAMKONG POLYTECHNIC", "substation": "35247", "primaryfee": "RONGAI OLENGURUONE33K EX SOILO", "primaysubs": "NAKURU WEST (SOILO)  SUBSTATION", "county": "Nakuru", "internalsb": 300647879.0, "customerss": 15.0, "physicallo": "near wamkog  primary", "pk": "1294"}, "geometry": {"type": "Point", "coordinates": [35.61800653, -0.587297778]}}, {"type": "Feature", "properties": {"name": "35291 - KIPTAGICH OLENGURUONE", "substation": "35291", "primaryfee": "RONGAI OLENGURUONE33K EX SOILO", "primaysubs": "NAKURU WEST (SOILO)  SUBSTATION", "county": "Nakuru", "internalsb": 300669002.0, "customerss": 13.0, "physicallo": "KAPCHORUA", "pk": "1722"}, "geometry": {"type": "Point", "coordinates": [35.6875175, -0.596888611]}}, {"type": "Feature", "properties": {"name": "35141 - MUNANDA MKT", "substation": "35141", "primaryfee": "GILGIL /MARULA EX LANET", "primaysubs": "LANET SUBSTATION", "county": "Nakuru", "internalsb": 300669884.0, "customerss": 166.0, "physicallo": "munanda", "pk": "1730"}, "geometry": {"type": "Point", "coordinates": [36.11018111, -0.594732778]}}, {"type": "Feature", "properties": {"name": "35677 - KIAMUNYEKI 15 APPLICA", "substation": "35677", "primaryfee": "NORTH 11Kv EX LANET", "primaysubs": "LANET SUBSTATION", "county": "Nakuru", "internalsb": 300648543.0, "customerss": 476.0, "physicallo": "KIAMUNYEKI", "pk": "1331"}, "geometry": {"type": "Point", "coordinates": [36.13647444, -0.270085278]}}, {"type": "Feature", "properties": {"name": "35674 - C.B.C. MAILI SITA", "substation": "35674", "primaryfee": "NYAHURURU/MARALAL 33Kv L1", "primaysubs": "LANET SUBSTATION", "county": "Nakuru", "internalsb": 300648557.0, "customerss": 105.0, "physicallo": "NAKURU", "pk": "1339"}, "geometry": {"type": "Point", "coordinates": [36.13444108, -0.2270425]}}, {"type": "Feature", "properties": {"name": "35675 - C.B.C. NYATHUNA", "substation": "35675", "primaryfee": "NYAHURURU/MARALAL 33Kv L1", "primaysubs": "LANET SUBSTATION", "county": "Nakuru", "internalsb": 300648558.0, "customerss": 113.0, "physicallo": "NYATHUNA", "pk": "1340"}, "geometry": {"type": "Point", "coordinates": [36.12651278, -0.217529167]}}, {"type": "Feature", "properties": {"name": "35570 - C.B.C. GWA CIARA MARK", "substation": "35570", "primaryfee": "NORTH 11Kv EX LANET", "primaysubs": "LANET SUBSTATION", "county": "Nakuru", "internalsb": 300649104.0, "customerss": 666.0, "physicallo": "kambi shumari shopping center", "pk": "1377"}, "geometry": {"type": "Point", "coordinates": [36.12746972, -0.256329722]}}, {"type": "Feature", "properties": {"name": "35768 - MILIMANI", "substation": "35768", "primaryfee": "MILIMANI  11KV  EX  NAKURU", "primaysubs": "NAKURU DEPOT", "county": "Nakuru", "internalsb": 300652770.0, "customerss": 33.0, "physicallo": "NAKURU", "pk": "1485"}, "geometry": {"type": "Point", "coordinates": [36.08052056, -0.272861667]}}, {"type": "Feature", "properties": {"name": "35767 - TIRIKI RD", "substation": "35767", "primaryfee": "MILIMANI  11KV  EX  NAKURU", "primaysubs": "LANET SUBSTATION", "county": "Nakuru", "internalsb": 300652976.0, "customerss": 153.0, "physicallo": "next to plot 5560", "pk": "1489"}, "geometry": {"type": "Point", "coordinates": [36.07351528, -0.269601111]}}, {"type": "Feature", "properties": {"name": "35681 - 35681", "substation": "35681", "primaryfee": "UNIVERSITY FEEDER EX KABARAK", "primaysubs": "KABARAK 33/11 SUBSTATION", "county": "Nakuru", "internalsb": 300703976.0, "customerss": 39.0, "physicallo": "LENGINET", "pk": "1968"}, "geometry": {"type": "Point", "coordinates": [35.91575194, -0.1294525]}}, {"type": "Feature", "properties": {"name": "35732 - OLIJ FARM", "substation": "35732", "primaryfee": "DCK NAROK 33KV EX SUSWA", "primaysubs": "NAIVASHA SUBSTATION", "county": "Nakuru", "internalsb": 300705020.0, "customerss": 120.0, "physicallo": "KA", "pk": "1987"}, "geometry": {"type": "Point", "coordinates": [36.43125417, -0.785497639]}}, {"type": "Feature", "properties": {"name": "35437 - 35437", "substation": "35437", "primaryfee": "UNIVERSITY FEEDER EX KABARAK", "primaysubs": "KABARAK 33/11 SUBSTATION", "county": "Nakuru", "internalsb": 300705367.0, "customerss": 0.0, "physicallo": "KABARAK", "pk": "1989"}, "geometry": {"type": "Point", "coordinates": [35.95017736, -0.126983611]}}, {"type": "Feature", "properties": {"name": "35977 - SECTION 58", "substation": "35977", "primaryfee": "SOUTH EX LANET", "primaysubs": "LANET SUBSTATION", "county": "Nakuru", "internalsb": 300648835.0, "customerss": 345.0, "physicallo": "kabacha estate", "pk": "1366"}, "geometry": {"type": "Point", "coordinates": [36.09007194, -0.288003333]}}, {"type": "Feature", "properties": {"name": "35980 - SECTIN 58", "substation": "35980", "primaryfee": "SOUTH EX LANET", "primaysubs": "LANET SUBSTATION", "county": "Nakuru", "internalsb": 300648838.0, "customerss": 445.0, "physicallo": "NAKURU", "pk": "1367"}, "geometry": {"type": "Point", "coordinates": [36.09364833, -0.287809167]}}, {"type": "Feature", "properties": {"name": "35821 - MAKUTANO  VIILAGE", "substation": "35821", "primaryfee": "MAILI SABA TOWNFEEDER EXBAHATI", "primaysubs": "BAHATI  33/11KV  S/STN", "county": "Nakuru", "internalsb": 300653773.0, "customerss": 27.0, "physicallo": "makutanio cbc", "pk": "1527"}, "geometry": {"type": "Point", "coordinates": [36.18008528, -0.15766]}}, {"type": "Feature", "properties": {"name": "35823 - MAKUTANIO CBC", "substation": "35823", "primaryfee": "MAILI SABA TOWNFEEDER EXBAHATI", "primaysubs": "BAHATI  33/11KV  S/STN", "county": "Nakuru", "internalsb": 300654019.0, "customerss": 21.0, "physicallo": "makutanio cbc", "pk": "1539"}, "geometry": {"type": "Point", "coordinates": [36.18068167, -0.162743889]}}, {"type": "Feature", "properties": {"name": "05510 - Adc_Ndabibi", "substation": "05510", "primaryfee": "NORTH LAKE SHORE 11KV EX", "primaysubs": "DCK", "county": "Nakuru", "internalsb": 300607295.0, "customerss": 0.0, "physicallo": "baharini", "pk": "81"}, "geometry": {"type": "Point", "coordinates": [36.2725175, -0.777265833]}}, {"type": "Feature", "properties": {"name": "35919 - MITAURI", "substation": "35919", "primaryfee": "GILGIL INTERCONN 33KV EX SUSWA", "primaysubs": "NAIVASHA SUBSTATION", "county": "Nakuru", "internalsb": 300671857.0, "customerss": 9.0, "physicallo": "road side", "pk": "1747"}, "geometry": {"type": "Point", "coordinates": [36.49146722, -0.729574722]}}, {"type": "Feature", "properties": {"name": "35869 - 35869", "substation": "35869", "primaryfee": "UNIVERSITY FEEDER EX KABARAK", "primaysubs": "KABARAK 33/11 SUBSTATION", "county": "Nakuru", "internalsb": 300703975.0, "customerss": 9.0, "physicallo": "MANGU", "pk": "1967"}, "geometry": {"type": "Point", "coordinates": [35.94437861, -0.215474167]}}, {"type": "Feature", "properties": {"name": "35847 - KITOBEN MKT", "substation": "35847", "primaryfee": "RONGAI OLENGURUONE33K EX SOILO", "primaysubs": "NAKURU WEST (SOILO)  SUBSTATION", "county": "Nakuru", "internalsb": 300708301.0, "customerss": 0.0, "physicallo": "KITOBEN MKT", "pk": "2041"}, "geometry": {"type": "Point", "coordinates": [35.67191583, -0.646181111]}}, {"type": "Feature", "properties": {"name": "35849 - LONGET PRIMARY SCHOOL", "substation": "35849", "primaryfee": "RONGAI OLENGURUONE33K EX SOILO", "primaysubs": "NAKURU WEST (SOILO)  SUBSTATION", "county": "Nakuru", "internalsb": 300708302.0, "customerss": 0.0, "physicallo": "longet primary school", "pk": "2042"}, "geometry": {"type": "Point", "coordinates": [35.66506722, -0.652721333]}}, {"type": "Feature", "properties": {"name": "50771 - OLENGURUONE CELTEL AR", "substation": "50771", "primaryfee": "RONGAI OLENGURUONE33K EX SOILO", "primaysubs": "NAKURU WEST (SOILO)  SUBSTATION", "county": "Nakuru", "internalsb": 300666272.0, "customerss": 39.0, "physicallo": "OLENGURUONE CELTEL AREA", "pk": "1655"}, "geometry": {"type": "Point", "coordinates": [35.65826556, -0.592253056]}}, {"type": "Feature", "properties": {"name": "50772 - CBC MUCHORWE", "substation": "50772", "primaryfee": "RONGAI OLENGURUONE33K EX SOILO", "primaysubs": "NAKURU WEST (SOILO)  SUBSTATION", "county": "Nakuru", "internalsb": 300666279.0, "customerss": 66.0, "physicallo": "near cbc muchorwe", "pk": "1656"}, "geometry": {"type": "Point", "coordinates": [35.68503533, -0.324051667]}}, {"type": "Feature", "properties": {"name": "50932 - NYAKAIRO", "substation": "50932", "primaryfee": "GILGIL INTERCONN 33KV EX SUSWA", "primaysubs": "NAIVASHA SUBSTATION", "county": "Nakuru", "internalsb": 300667915.0, "customerss": 21.0, "physicallo": "NYAKAIRO", "pk": "1682"}, "geometry": {"type": "Point", "coordinates": [36.53570853, -0.777358056]}}, {"type": "Feature", "properties": {"name": "50914 - RIFT VALLEY BAKERY", "substation": "50914", "primaryfee": "NORTH 11Kv EX LANET", "primaysubs": "LANET SUBSTATION", "county": "Nakuru", "internalsb": 300668167.0, "customerss": 966.0, "physicallo": "WHITE HOUSE", "pk": "1686"}, "geometry": {"type": "Point", "coordinates": [36.10208944, -0.272555833]}}, {"type": "Feature", "properties": {"name": "50907 - CBC  OLENGURUONE", "substation": "50907", "primaryfee": "RONGAI OLENGURUONE33K EX SOILO", "primaysubs": "NAKURU WEST (SOILO)  SUBSTATION", "county": "Nakuru", "internalsb": 300668965.0, "customerss": 21.0, "physicallo": "SEANI PRIMARY  SCHOOL", "pk": "1717"}, "geometry": {"type": "Point", "coordinates": [35.66810217, -0.592688056]}}, {"type": "Feature", "properties": {"name": "50428 - SIMOTWET PRIMARY", "substation": "50428", "primaryfee": "RONGAI OLENGURUONE33K EX SOILO", "primaysubs": "NAKURU WEST (SOILO)  SUBSTATION", "county": "Nakuru", "internalsb": 300668968.0, "customerss": 36.0, "physicallo": "OLENGURUONE", "pk": "1718"}, "geometry": {"type": "Point", "coordinates": [35.63686222, -0.61741175]}}, {"type": "Feature", "properties": {"name": "50991 - ROYAL INDUSTRIES", "substation": "50991", "primaryfee": "MENENGAI 11KV EX NAKURU", "primaysubs": "NAKURU DEPOT", "county": "Nakuru", "internalsb": 300669150.0, "customerss": 0.0, "physicallo": "LOCARED IN ROYAL GROUP OF IND", "pk": "1724"}, "geometry": {"type": "Point", "coordinates": [36.05240158, -0.280495]}}, {"type": "Feature", "properties": {"name": "51033 - FONTANA LTD", "substation": "51033", "primaryfee": "LANET RONGAI ELBURGON 33K", "primaysubs": "LANET SUBSTATION", "county": "Nakuru", "internalsb": 300669634.0, "customerss": 0.0, "physicallo": "flower far", "pk": "1728"}, "geometry": {"type": "Point", "coordinates": [35.85125239, -0.225225833]}}, {"type": "Feature", "properties": {"name": "51039 - CBC SUSWA NAIVASHA", "substation": "51039", "primaryfee": "KINANGOP FEEDER 33KV", "primaysubs": "NAIVASHA SUBSTATION", "county": "Nakuru", "internalsb": 300669888.0, "customerss": 60.0, "physicallo": "off naivasha mahimahu road af", "pk": "1732"}, "geometry": {"type": "Point", "coordinates": [36.46449639, -0.804509722]}}, {"type": "Feature", "properties": {"name": "50438 - BENARD THEORA", "substation": "50438", "primaryfee": "TOWN 11KV EX MAI MAHIU", "primaysubs": "MAI MAHIU 66/11 SUB STATION", "county": "Nakuru", "internalsb": 300670271.0, "customerss": 3.0, "physicallo": "MASTIMA AREA", "pk": "1737"}, "geometry": {"type": "Point", "coordinates": [36.5286775, -0.952783611]}}, {"type": "Feature", "properties": {"name": "51015 - RUIRU SOLAI", "substation": "51015", "primaryfee": "NYAHURURU/MARALAL 33Kv L1", "primaysubs": "LANET SUBSTATION", "county": "Nakuru", "internalsb": 300670349.0, "customerss": 21.0, "physicallo": "RUIRU PRIMARY SCHOOL", "pk": "1740"}, "geometry": {"type": "Point", "coordinates": [36.09615028, -0.075885556]}}, {"type": "Feature", "properties": {"name": "51157 - NALIIN STEEL LTD-KINU", "substation": "51157", "primaryfee": "GILGIL INTERCONN 33KV EX SUSWA", "primaysubs": "NAIVASHA SUBSTATION", "county": "Nakuru", "internalsb": 300671352.0, "customerss": 564.0, "physicallo": "KINUNGI", "pk": "1743"}, "geometry": {"type": "Point", "coordinates": [36.52115889, -0.7905825]}}, {"type": "Feature", "properties": {"name": "17455 - Dr. Silverstein & Br", "substation": "17455", "primaryfee": "NORTH LAKE SHORE 11KV EX", "primaysubs": "DCK", "county": "Nakuru", "internalsb": 300607297.0, "customerss": 19.0, "physicallo": "dr slyvester", "pk": "83"}, "geometry": {"type": "Point", "coordinates": [36.29887833, -0.780567778]}}, {"type": "Feature", "properties": {"name": "17480 - Crater Lake Ltd", "substation": "17480", "primaryfee": "NORTH LAKE SHORE 11KV EX", "primaysubs": "DCK", "county": "Nakuru", "internalsb": 300607298.0, "customerss": 8.0, "physicallo": "NDABIBI", "pk": "84"}, "geometry": {"type": "Point", "coordinates": [36.25816389, -0.783535528]}}, {"type": "Feature", "properties": {"name": "17726 - OSERIAN KASIRIKA GATE", "substation": "17726", "primaryfee": "DCK NAROK 33KV EX SUSWA", "primaysubs": "NAIVASHA SUBSTATION", "county": "Nakuru", "internalsb": 300607209.0, "customerss": 0.0, "physicallo": "KASIRIKA GATE-OSERIAN FARM", "pk": "13"}, "geometry": {"type": "Point", "coordinates": [36.28967028, -0.850112222]}}, {"type": "Feature", "properties": {"name": "18091 - INDIA LTD", "substation": "18091", "primaryfee": "NORTH LAKE SHORE 11KV EX", "primaysubs": "DCK", "county": "Nakuru", "internalsb": 300607299.0, "customerss": 199.0, "physicallo": "INDIA", "pk": "85"}, "geometry": {"type": "Point", "coordinates": [36.267399, -0.762071111]}}, {"type": "Feature", "properties": {"name": "51213 - GATAMAYU MKT", "substation": "51213", "primaryfee": "GILGIL INTERCONN 33KV EX SUSWA", "primaysubs": "NAIVASHA SUBSTATION", "county": "Nakuru", "internalsb": 300671850.0, "customerss": 144.0, "physicallo": "GATAMAYU MARKET", "pk": "1744"}, "geometry": {"type": "Point", "coordinates": [36.44907917, -0.627585278]}}, {"type": "Feature", "properties": {"name": "51236 - Kapchorwa village kip", "substation": "51236", "primaryfee": "RONGAI OLENGURUONE33K EX SOILO", "primaysubs": "NAKURU WEST (SOILO)  SUBSTATION", "county": "Nakuru", "internalsb": 300672069.0, "customerss": 9.0, "physicallo": "kapchorwa", "pk": "1753"}, "geometry": {"type": "Point", "coordinates": [35.68457119, -0.602938056]}}, {"type": "Feature", "properties": {"name": "51208 - KOILUGET PRIMARY SCH", "substation": "51208", "primaryfee": "RONGAI OLENGURUONE33K EX SOILO", "primaysubs": "NAKURU WEST (SOILO)  SUBSTATION", "county": "Nakuru", "internalsb": 300672079.0, "customerss": 3.0, "physicallo": "OLENGURUONE", "pk": "1755"}, "geometry": {"type": "Point", "coordinates": [35.68339436, -0.614904167]}}, {"type": "Feature", "properties": {"name": "51237 - KOILUGET CHURCH KIPTA", "substation": "51237", "primaryfee": "RONGAI OLENGURUONE33K EX SOILO", "primaysubs": "NAKURU WEST (SOILO)  SUBSTATION", "county": "Nakuru", "internalsb": 300672096.0, "customerss": 57.0, "physicallo": "opposite kitobin hotel", "pk": "1756"}, "geometry": {"type": "Point", "coordinates": [35.67882222, -0.6261025]}}, {"type": "Feature", "properties": {"name": "50631 - 50631", "substation": "50631", "primaryfee": "UNIVERSITY FEEDER EX KABARAK", "primaysubs": "KABARAK 33/11 SUBSTATION", "county": "Nakuru", "internalsb": 300706713.0, "customerss": 0.0, "physicallo": "KABARAK", "pk": "2005"}, "geometry": {"type": "Point", "coordinates": [35.95666056, -0.142928333]}}, {"type": "Feature", "properties": {"name": "102225 - KAPRIRIKANIA PRIMARY", "substation": "102225", "primaryfee": "RONGAI OLENGURUONE33K EX SOILO", "primaysubs": "NAKURU WEST (SOILO)  SUBSTATION", "county": "Nakuru", "internalsb": 300674755.0, "customerss": 3.0, "physicallo": "karirikania primary school", "pk": "1810"}, "geometry": {"type": "Point", "coordinates": [35.67775694, -0.363379722]}}, {"type": "Feature", "properties": {"name": "102227 - PARK VIEW PRI SCH", "substation": "102227", "primaryfee": "GAME PARK 11KV EX MWARIKI", "primaysubs": "MWARIKI 33/11KV", "county": "Nakuru", "internalsb": 300674757.0, "customerss": 0.0, "physicallo": "park view school", "pk": "1811"}, "geometry": {"type": "Point", "coordinates": [36.04974333, -0.352898056]}}, {"type": "Feature", "properties": {"name": "102426 - CBC JIKAZE", "substation": "102426", "primaryfee": "TOWN 11KV EX MAI MAHIU", "primaysubs": "MAI MAHIU 66/11 SUB STATION", "county": "Nakuru", "internalsb": 300674974.0, "customerss": 0.0, "physicallo": "NAIVASHA RD", "pk": "1813"}, "geometry": {"type": "Point", "coordinates": [36.53355039, -0.93429575]}}, {"type": "Feature", "properties": {"name": "102430 - VILLLA VIEW", "substation": "102430", "primaryfee": "TOWN FEEDER 33KV EX SUSWA", "primaysubs": "NAIVASHA SUBSTATION", "county": "Nakuru", "internalsb": 300674978.0, "customerss": 0.0, "physicallo": "VILLA VIEW", "pk": "1816"}, "geometry": {"type": "Point", "coordinates": [36.43586406, -0.766479167]}}, {"type": "Feature", "properties": {"name": "102431 - KENGEN OFFICES", "substation": "102431", "primaryfee": "DCK NAROK 33KV EX SUSWA", "primaysubs": "NAIVASHA SUBSTATION", "county": "Nakuru", "internalsb": 300674979.0, "customerss": 0.0, "physicallo": "KENGEN OFFICES", "pk": "1817"}, "geometry": {"type": "Point", "coordinates": [36.31822231, -0.818072472]}}, {"type": "Feature", "properties": {"name": "102605 - TANGI TANO PRI SCH", "substation": "102605", "primaryfee": "GILGIL /MARULA EX LANET", "primaysubs": "LANET SUBSTATION", "county": "Nakuru", "internalsb": 300675146.0, "customerss": 9.0, "physicallo": "KIAMBOGO", "pk": "1818"}, "geometry": {"type": "Point", "coordinates": [36.11963, -0.641977222]}}, {"type": "Feature", "properties": {"name": "102608 - CBC KONGASISIS", "substation": "102608", "primaryfee": "GILGIL /MARULA EX LANET", "primaysubs": "LANET SUBSTATION", "county": "Nakuru", "internalsb": 300675149.0, "customerss": 0.0, "physicallo": "KONGASIS", "pk": "1821"}, "geometry": {"type": "Point", "coordinates": [36.16964806, -0.561334444]}}, {"type": "Feature", "properties": {"name": "102610 - OLJORAI PRI SCH", "substation": "102610", "primaryfee": "GILGIL /MARULA EX LANET", "primaysubs": "LANET SUBSTATION", "county": "Nakuru", "internalsb": 300675151.0, "customerss": 3.0, "physicallo": "KONGASIS", "pk": "1822"}, "geometry": {"type": "Point", "coordinates": [36.19285528, -0.575228056]}}, {"type": "Feature", "properties": {"name": "102611 - OLE SIRWA PRIMARY SC", "substation": "102611", "primaryfee": "GILGIL /MARULA EX LANET", "primaysubs": "LANET SUBSTATION", "county": "Nakuru", "internalsb": 300675152.0, "customerss": 3.0, "physicallo": "KONGASIS", "pk": "1823"}, "geometry": {"type": "Point", "coordinates": [36.17694639, -0.605596667]}}, {"type": "Feature", "properties": {"name": "102613 - NGETETI PRI/SEC SCHS", "substation": "102613", "primaryfee": "CAPTAIN  11KV EX OLKALOU", "primaysubs": "OLKALOU SUBSTATION", "county": "Nakuru", "internalsb": 300675154.0, "customerss": 0.0, "physicallo": "NAKURU", "pk": "1824"}, "geometry": {"type": "Point", "coordinates": [36.37318, -0.419002944]}}, {"type": "Feature", "properties": {"name": "102667 - SUPPLY TO BOOKER", "substation": "102667", "primaryfee": "GILGIL INTERCONN 33KV EX SUSWA", "primaysubs": "NAIVASHA SUBSTATION", "county": "Nakuru", "internalsb": 300675207.0, "customerss": 0.0, "physicallo": "maraigushu village", "pk": "1826"}, "geometry": {"type": "Point", "coordinates": [36.54064972, -0.770514167]}}, {"type": "Feature", "properties": {"name": "102668 - MUSAKA AREA", "substation": "102668", "primaryfee": "KIHOTO SOUTHLAKE 11KV", "primaysubs": "KIHOTO SUBSTATION", "county": "Nakuru", "internalsb": 300675208.0, "customerss": 0.0, "physicallo": "la clasa  estate", "pk": "1827"}, "geometry": {"type": "Point", "coordinates": [36.44125194, -0.770766667]}}, {"type": "Feature", "properties": {"name": "102669 - MUSAKA AREA", "substation": "102669", "primaryfee": "KIHOTO SOUTHLAKE 11KV", "primaysubs": "KIHOTO SUBSTATION", "county": "Nakuru", "internalsb": 300675209.0, "customerss": 12.0, "physicallo": "musaka area", "pk": "1828"}, "geometry": {"type": "Point", "coordinates": [36.44163694, -0.772972778]}}, {"type": "Feature", "properties": {"name": "102670 - UCHUMI NAIVASHA", "substation": "102670", "primaryfee": "KIHOTO NAIVASHA TOWN 11KV", "primaysubs": "KIHOTO SUBSTATION", "county": "Nakuru", "internalsb": 300675210.0, "customerss": 195.0, "physicallo": "NAIVASHA RD", "pk": "1829"}, "geometry": {"type": "Point", "coordinates": [36.43427942, -0.713849444]}}, {"type": "Feature", "properties": {"name": "102671 - KAYOLE REIN", "substation": "102671", "primaryfee": "GILGIL INTERCONN 33KV EX SUSWA", "primaysubs": "NAIVASHA SUBSTATION", "county": "Nakuru", "internalsb": 300675211.0, "customerss": 0.0, "physicallo": "KEYOLE NAIVASHA", "pk": "1830"}, "geometry": {"type": "Point", "coordinates": [36.47351056, -0.750436083]}}, {"type": "Feature", "properties": {"name": "102730 - KARAU  MKT AND PRY S", "substation": "102730", "primaryfee": "RONGAI OLENGURUONE33K EX SOILO", "primaysubs": "NAKURU WEST (SOILO)  SUBSTATION", "county": "Nakuru", "internalsb": 300675270.0, "customerss": 0.0, "physicallo": "KERINGET", "pk": "1833"}, "geometry": {"type": "Point", "coordinates": [35.58524047, -0.476724444]}}, {"type": "Feature", "properties": {"name": "102736 - RAFIKI FARM", "substation": "102736", "primaryfee": "UNIVERSITY FEEDER EX KABARAK", "primaysubs": "KABARAK 33/11 SUBSTATION", "county": "Nakuru", "internalsb": 300675280.0, "customerss": 0.0, "physicallo": "sun and shield school kabarnet", "pk": "1835"}, "geometry": {"type": "Point", "coordinates": [35.95614111, -0.147280556]}}, {"type": "Feature", "properties": {"name": "102777 - KAPLAMBOI PRIMARY SC", "substation": "102777", "primaryfee": "RONGAI OLENGURUONE33K EX SOILO", "primaysubs": "NAKURU WEST (SOILO)  SUBSTATION", "county": "Nakuru", "internalsb": 300675317.0, "customerss": 3.0, "physicallo": "KAPLAMBOI", "pk": "1836"}, "geometry": {"type": "Point", "coordinates": [35.61696792, -0.660661944]}}, {"type": "Feature", "properties": {"name": "102779 - CHEPTUECH MARKET", "substation": "102779", "primaryfee": "RONGAI OLENGURUONE33K EX SOILO", "primaysubs": "NAKURU WEST (SOILO)  SUBSTATION", "county": "Nakuru", "internalsb": 300675319.0, "customerss": 141.0, "physicallo": "cheptuech market", "pk": "1838"}, "geometry": {"type": "Point", "coordinates": [35.64573278, -0.590645556]}}, {"type": "Feature", "properties": {"name": "102783 - KAMUNGEI PRIMARY SCH", "substation": "102783", "primaryfee": "GILGIL /MARULA EX LANET", "primaysubs": "LANET SUBSTATION", "county": "Nakuru", "internalsb": 300675323.0, "customerss": 3.0, "physicallo": "KAMUNGEI", "pk": "1840"}, "geometry": {"type": "Point", "coordinates": [36.04440444, -0.553139167]}}, {"type": "Feature", "properties": {"name": "102784 - MAHIGA PRIMARY SCHOOL", "substation": "102784", "primaryfee": "GILGIL /MARULA EX LANET", "primaysubs": "LANET SUBSTATION", "county": "Nakuru", "internalsb": 300675324.0, "customerss": 0.0, "physicallo": "mahiga primary", "pk": "1841"}, "geometry": {"type": "Point", "coordinates": [36.05454222, -0.506556111]}}, {"type": "Feature", "properties": {"name": "102808 - CHOKERERIA  CBC", "substation": "102808", "primaryfee": "GILGIL TOWN 11KV EX GILGI", "primaysubs": "GILGIL", "county": "Nakuru", "internalsb": 300675351.0, "customerss": 18.0, "physicallo": "chokera", "pk": "1843"}, "geometry": {"type": "Point", "coordinates": [36.35334639, -0.4551233]}}, {"type": "Feature", "properties": {"name": "102818 - MWITUMBERIA REA PROJ", "substation": "102818", "primaryfee": "GILGIL TOWN 11KV EX GILGI", "primaysubs": "GILGIL", "county": "Nakuru", "internalsb": 300675358.0, "customerss": 36.0, "physicallo": "Mwitumberia", "pk": "1846"}, "geometry": {"type": "Point", "coordinates": [36.38202417, -0.51845125]}}, {"type": "Feature", "properties": {"name": "102819 - MWEGA  REA PROJECT", "substation": "102819", "primaryfee": "GILGIL TOWN 11KV EX GILGI", "primaysubs": "GILGIL", "county": "Nakuru", "internalsb": 300675359.0, "customerss": 15.0, "physicallo": "Mwitumberia kwa Ndungu", "pk": "1847"}, "geometry": {"type": "Point", "coordinates": [36.3898025, -0.529309444]}}, {"type": "Feature", "properties": {"name": "102820 - MWEGA PRI SCH", "substation": "102820", "primaryfee": "GILGIL TOWN 11KV EX GILGI", "primaysubs": "GILGIL", "county": "Nakuru", "internalsb": 300675360.0, "customerss": 3.0, "physicallo": "near mwega primary", "pk": "1848"}, "geometry": {"type": "Point", "coordinates": [36.38995583, -0.521479444]}}, {"type": "Feature", "properties": {"name": "102824 - MORENDAT PRI SCH", "substation": "102824", "primaryfee": "GILGIL TOWN 11KV EX GILGI", "primaysubs": "GILGIL", "county": "Nakuru", "internalsb": 300675364.0, "customerss": 0.0, "physicallo": "LANGA LANGA  GILGIL", "pk": "1850"}, "geometry": {"type": "Point", "coordinates": [36.36468194, -0.538985]}}, {"type": "Feature", "properties": {"name": "102825 - WOOWARD SEC SCH", "substation": "102825", "primaryfee": "GILGIL TOWN 11KV EX GILGI", "primaysubs": "GILGIL", "county": "Nakuru", "internalsb": 300675365.0, "customerss": 223.0, "physicallo": "LANGA LANGA GILGIL", "pk": "1851"}, "geometry": {"type": "Point", "coordinates": [36.37075639, -0.510198333]}}, {"type": "Feature", "properties": {"name": "103125 - NGONYOMO PRIMARY SCH", "substation": "103125", "primaryfee": "NORTH LAKE SHORE 11KV EX", "primaysubs": "DCK", "county": "Nakuru", "internalsb": 300675692.0, "customerss": 3.0, "physicallo": "ngonyono primary school", "pk": "1855"}, "geometry": {"type": "Point", "coordinates": [36.19377111, -0.8217025]}}, {"type": "Feature", "properties": {"name": "103655 - REINF NDEGE FARM", "substation": "103655", "primaryfee": "CAMP  EX LANET", "primaysubs": "LANET SUBSTATION", "county": "Nakuru", "internalsb": 300676238.0, "customerss": 12.0, "physicallo": "NDEGE FARM", "pk": "1857"}, "geometry": {"type": "Point", "coordinates": [36.16870158, -0.298408056]}}, {"type": "Feature", "properties": {"name": "103660 - GPOBA BONDENI 4", "substation": "103660", "primaryfee": "GILGIL /MARULA EX LANET", "primaysubs": "LANET SUBSTATION", "county": "Nakuru", "internalsb": 300676243.0, "customerss": 57.0, "physicallo": "near murrey general shop", "pk": "1859"}, "geometry": {"type": "Point", "coordinates": [36.00200175, -0.597961944]}}, {"type": "Feature", "properties": {"name": "103662 - GPOBA BONDENI3", "substation": "103662", "primaryfee": "GILGIL /MARULA EX LANET", "primaysubs": "LANET SUBSTATION", "county": "Nakuru", "internalsb": 300676245.0, "customerss": 21.0, "physicallo": "MAU NAROK", "pk": "1860"}, "geometry": {"type": "Point", "coordinates": [36.00440278, -0.597471944]}}, {"type": "Feature", "properties": {"name": "103665 - GPOBA BONDENI 1", "substation": "103665", "primaryfee": "GILGIL /MARULA EX LANET", "primaysubs": "LANET SUBSTATION", "county": "Nakuru", "internalsb": 300676248.0, "customerss": 0.0, "physicallo": "MAU NAROK", "pk": "1862"}, "geometry": {"type": "Point", "coordinates": [36.00876028, -0.598586111]}}, {"type": "Feature", "properties": {"name": "103666 - GPOBA BONDENI UPPER 1", "substation": "103666", "primaryfee": "GILGIL /MARULA EX LANET", "primaysubs": "LANET SUBSTATION", "county": "Nakuru", "internalsb": 300676249.0, "customerss": 57.0, "physicallo": "gpoba bondeni", "pk": "1863"}, "geometry": {"type": "Point", "coordinates": [36.01215194, -0.598071389]}}, {"type": "Feature", "properties": {"name": "103667 - GPOBA BONDENI UPPER", "substation": "103667", "primaryfee": "GILGIL /MARULA EX LANET", "primaysubs": "LANET SUBSTATION", "county": "Nakuru", "internalsb": 300676250.0, "customerss": 0.0, "physicallo": "MAU NAROK", "pk": "1864"}, "geometry": {"type": "Point", "coordinates": [36.01585917, -0.598351667]}}, {"type": "Feature", "properties": {"name": "103668 - GPOBA MWISHO WA LAMI", "substation": "103668", "primaryfee": "GILGIL /MARULA EX LANET", "primaysubs": "LANET SUBSTATION", "county": "Nakuru", "internalsb": 300676251.0, "customerss": 18.0, "physicallo": "Gpoba", "pk": "1865"}, "geometry": {"type": "Point", "coordinates": [35.99105639, -0.633357944]}}, {"type": "Feature", "properties": {"name": "103693 - PIPELINE SYSTEM REIN", "substation": "103693", "primaryfee": "GILGIL /MARULA EX LANET", "primaysubs": "LANET SUBSTATION", "county": "Nakuru", "internalsb": 300676276.0, "customerss": 0.0, "physicallo": "PIPELINE NAKURU", "pk": "1866"}, "geometry": {"type": "Point", "coordinates": [36.14490778, -0.33471675]}}, {"type": "Feature", "properties": {"name": "103720 - CBC KIPNGOCHOCH", "substation": "103720", "primaryfee": "NYAHURURU/MARALAL 33Kv L1", "primaysubs": "LANET SUBSTATION", "county": "Nakuru", "internalsb": 300676303.0, "customerss": 0.0, "physicallo": "KIPNGOCHOCH", "pk": "1867"}, "geometry": {"type": "Point", "coordinates": [36.07936778, -0.158867778]}}, {"type": "Feature", "properties": {"name": "103721 - CBC SOLAI", "substation": "103721", "primaryfee": "NYAHURURU/MARALAL 33Kv L1", "primaysubs": "LANET SUBSTATION", "county": "Nakuru", "internalsb": 300676304.0, "customerss": 144.0, "physicallo": "KAMKUNCHI AREA", "pk": "1868"}, "geometry": {"type": "Point", "coordinates": [36.13665389, -0.115181667]}}, {"type": "Feature", "properties": {"name": "103731 - GDC WELL 3", "substation": "103731", "primaryfee": "NYAHURURU/MARALAL 33Kv L1", "primaysubs": "LANET SUBSTATION", "county": "Nakuru", "internalsb": 300676314.0, "customerss": 0.0, "physicallo": "MENENGAI GDC COMPANY", "pk": "1873"}, "geometry": {"type": "Point", "coordinates": [36.07208389, -0.2110475]}}, {"type": "Feature", "properties": {"name": "103732 - CBC KWA BUDA", "substation": "103732", "primaryfee": "NORTH 11Kv EX LANET", "primaysubs": "LANET SUBSTATION", "county": "Nakuru", "internalsb": 300676315.0, "customerss": 0.0, "physicallo": "KAKOTO AREA", "pk": "1874"}, "geometry": {"type": "Point", "coordinates": [36.10615444, -0.261813333]}}, {"type": "Feature", "properties": {"name": "103741 - KAMURE MKT", "substation": "103741", "primaryfee": "RONGAI OLENGURUONE33K EX SOILO", "primaysubs": "NAKURU WEST (SOILO)  SUBSTATION", "county": "Nakuru", "internalsb": 300676324.0, "customerss": 0.0, "physicallo": "kamure mkt", "pk": "1876"}, "geometry": {"type": "Point", "coordinates": [35.64311833, -0.313413333]}}, {"type": "Feature", "properties": {"name": "103742 - C.B . C  MUNGETHO", "substation": "103742", "primaryfee": "RONGAI OLENGURUONE33K EX SOILO", "primaysubs": "NAKURU WEST (SOILO)  SUBSTATION", "county": "Nakuru", "internalsb": 300676325.0, "customerss": 0.0, "physicallo": "mungetho", "pk": "1877"}, "geometry": {"type": "Point", "coordinates": [35.63652306, -0.323665]}}, {"type": "Feature", "properties": {"name": "05250 - OSERIAN DOWN LAKE PUMP", "substation": "05250", "primaryfee": "NORTH LAKE SHORE 11KV EX", "primaysubs": "DCK", "county": "Nakuru", "internalsb": 300607274.0, "customerss": 250.0, "physicallo": "OSERIAN WATER PUMP", "pk": "61"}, "geometry": {"type": "Point", "coordinates": [36.29890861, -0.818645611]}}, {"type": "Feature", "properties": {"name": "17423 - Oserian Dev Coy", "substation": "17423", "primaryfee": "NORTH LAKE SHORE 11KV EX", "primaysubs": "DCK", "county": "Nakuru", "internalsb": 300607283.0, "customerss": 45.0, "physicallo": "CHAVAUNI ESTATE", "pk": "70"}, "geometry": {"type": "Point", "coordinates": [36.24818639, -0.822627222]}}, {"type": "Feature", "properties": {"name": "106435 - PRE INVESMENT  AMOS", "substation": "106435", "primaryfee": "MAILI SABA TOWNFEEDER EXBAHATI", "primaysubs": "BAHATI  33/11KV  S/STN", "county": "Nakuru", "internalsb": 300677412.0, "customerss": 0.0, "physicallo": "AMOS CENTER", "pk": "1892"}, "geometry": {"type": "Point", "coordinates": [36.15253431, -0.227692778]}}, {"type": "Feature", "properties": {"name": "107124 - PRE INVESTMENT JC", "substation": "107124", "primaryfee": "NYAHURURU/MARALAL 33Kv L1", "primaysubs": "LANET SUBSTATION", "county": "Nakuru", "internalsb": 300677719.0, "customerss": 0.0, "physicallo": "JC ENGASHURA", "pk": "1898"}, "geometry": {"type": "Point", "coordinates": [36.13033972, -0.223695833]}}, {"type": "Feature", "properties": {"name": "107131 - CBC KARUNGA RUGURU", "substation": "107131", "primaryfee": "MAILI SABA TOWNFEEDER EXBAHATI", "primaysubs": "LANET SUBSTATION", "county": "Nakuru", "internalsb": 300677727.0, "customerss": 0.0, "physicallo": "KARUNGA RUGURU FARM", "pk": "1899"}, "geometry": {"type": "Point", "coordinates": [36.18041083, -0.168493194]}}, {"type": "Feature", "properties": {"name": "108995 - 108995", "substation": "108995", "primaryfee": "RONGAI OLENGURUONE33K EX SOILO", "primaysubs": "NAKURU WEST (SOILO)  SUBSTATION", "county": "Nakuru", "internalsb": 300703613.0, "customerss": 6.0, "physicallo": "OFF RONGAI TO ELBURGON", "pk": "1965"}, "geometry": {"type": "Point", "coordinates": [35.81713458, -0.2853795]}}, {"type": "Feature", "properties": {"name": "113901 - KIPTARAGON VILLAGE P", "substation": "113901", "primaryfee": "RONGAI OLENGURUONE33K EX SOILO", "primaysubs": "NAKURU WEST (SOILO)  SUBSTATION", "county": "Nakuru", "internalsb": 300683105.0, "customerss": 0.0, "physicallo": "kiptaragon village", "pk": "1908"}, "geometry": {"type": "Point", "coordinates": [35.69495972, -0.559264167]}},