LONGITUDE,LAT,LABEL,NAME,Substation,PrimaryFee,PrimaySubs,County,InternalSb,CustomersS,PhysicalLo
35.67992167,0.430043611,3557 - 3557,3557 - 3557,3557,RONGAI OLENGURUONE33K EX SOILO,NAKURU WEST (SOILO)  SUBSTATION,Nakuru,300708285,0,Kapsengut
36.55308417,0.8612125,04927 - MAGUMU REPEATER STN.,04927 - MAGUMU REPEATER STN.,4927,SATELITE EX MAGUMU,MAGUMU 33/11 KV SUBSTATION,Nakuru,300004548,182,MAGUMU
36.09713667,0.282397222,05001 - NAWASCO WATER TANKS.,05001 - NAWASCO WATER TANKS.,5001,NORTH 11Kv EX LANET,LANET SUBSTATION,Nakuru,300607364,42,NAKURU
36.11849267,0.293853889,05002 - Free Area,05002 - Free Area,5002,SOUTH EX LANET,LANET SUBSTATION,Nakuru,300607393,2476,social hall free area
36.08940056,0.282010556,05003 - Mcn Borehole No. 4,05003 - Mcn Borehole No. 4,5003,MILIMANI  11KV  EX  NAKURU,NAKURU DEPOT,Nakuru,300607366,884,NAKURU
36.10134736,0.285086972,05004 - Police Dog Unit_Nakuru,05004 - Police Dog Unit_Nakuru,5004,SOUTH EX LANET,LANET SUBSTATION,Nakuru,300607397,583,Kenya Police Dog unit.
36.08554378,0.279067222,05005 - WATER PUMP KIAMAINA R,05005 - WATER PUMP KIAMAINA R,5005,MILIMANI  11KV  EX  NAKURU,NAKURU DEPOT,Nakuru,300610229,261,NAKURU
36.08982111,0.286236389,05006 - Maasai Avenue,05006 - Maasai Avenue,5006,SOUTH EX LANET,LANET SUBSTATION,Nakuru,300607402,683,58 estate
36.09171056,0.276179167,05007 - NAKURU HIGH SCHOOL,05007 - NAKURU HIGH SCHOOL,5007,MILIMANI  11KV  EX  NAKURU,NAKURU DEPOT,Nakuru,300612299,111,NAKURU GIRLS' HIGH SCHOOL
36.08400778,0.287279722,05008 - Maasai Avenue,05008 - Maasai Avenue,5008,SOUTH EX LANET,LANET SUBSTATION,Nakuru,300607420,637,opposite  nakuru hill academy
36.09630889,0.2743175,05009 - Nakuru High Sch,05009 - Nakuru High Sch,5009,MILIMANI  11KV  EX  NAKURU,NAKURU DEPOT,Nakuru,300612297,88,NAKURU BOYS
36.07604556,0.289183333,05010 - Bondeni Rd./Masai Av,05010 - Bondeni Rd./Masai Av,5010,SOUTH EX LANET,LANET SUBSTATION,Nakuru,300607422,1992,NAKURU
36.08373511,0.273117222,05011 - Crater Climb,05011 - Crater Climb,5011,MILIMANI  11KV  EX  NAKURU,NAKURU DEPOT,Nakuru,300610218,504,NAKURU
36.08288583,0.292624444,05012 - Shuleni Road,05012 - Shuleni Road,5012,GAME PARK 11KV EX MWARIKI,MWARIKI 33/11KV,Nakuru,300610124,4966,kisulisuli area
36.09086556,0.249939167,05013 - KIRIMA MARKET,05013 - KIRIMA MARKET,5013,MILIMANI  11KV  EX  NAKURU,LANET SUBSTATION,Nakuru,300610223,122,KIRIMA MARKET
36.08286722,0.299976667,05014 - Kivumbini Estate,05014 - Kivumbini Estate,5014,GAME PARK 11KV EX MWARIKI,MWARIKI 33/11KV,Nakuru,300610119,13991,NAKURU
36.08035444,0.281356389,05015 - War Memorial Hospital,05015 - War Memorial Hospital,5015,MILIMANI  11KV  EX  NAKURU,NAKURU DEPOT,Nakuru,300610217,525,NAKURU
36.07564889,0.284323472,05016 - Market S/Station,05016 - Market S/Station,5016,SOUTH 11KV EX NAKURU,NAKURU DEPOT,Nakuru,300607433,605,Matatu stage
36.07797278,0.279650833,05017 - Menengai Drive,05017 - Menengai Drive,5017,MILIMANI  11KV  EX  NAKURU,LANET SUBSTATION,Nakuru,300610215,123,NEXT TO TNA-NAKURU OFFICE
36.07192528,0.286096,05018 - Rift Valley Sport Club,05018 - Rift Valley Sport Club,5018,NAKURU TOWN 11KV EX NAKURU,NAKURU DEPOT,Nakuru,300663492,310,INSIDE RIFT VALLEY SPORTS CLUB
36.07197806,0.272910278,05019 - Crescent Road,05019 - Crescent Road,5019,MILIMANI  11KV  EX  NAKURU,NAKURU DEPOT,Nakuru,300610210,1029,milimani guest house
36.07191639,0.290205278,05020 - St Xaviers Primary,05020 - St Xaviers Primary,5020,SOUTH 11KV EX NAKURU,NAKURU DEPOT,Nakuru,300610041,754,st xavier primary
36.07290861,0.278343333,05021 - General Hospital,05021 - General Hospital,5021,MILIMANI  11KV  EX  NAKURU,NAKURU DEPOT,Nakuru,300610207,351,nakuru PGH
36.07044361,0.294554167,05022 - Stadium Road,05022 - Stadium Road,5022,RACE TRACK 11KV EX MWARIKI,NAKURU DEPOT,Nakuru,300610042,0,NAKURU
36.06674514,0.281918333,05023 - Nakuru Railway Station,05023 - Nakuru Railway Station,5023,MILIMANI  11KV  EX  NAKURU,NAKURU DEPOT,Nakuru,300610203,656,NAKURU RAILWAYS
36.07461389,0.298830833,05024 - Freehold Area,05024 - Freehold Area,5024,GAME PARK 11KV EX MWARIKI,MWARIKI 33/11KV,Nakuru,300610044,754,afuraha martenity
36.06625556,0.2800725,05025 - SHOW GROUND,05025 - SHOW GROUND,5025,MILIMANI  11KV  EX  NAKURU,NAKURU DEPOT,Nakuru,300610204,149,Nakuru Showground
36.07762889,0.308609167,05026 - Lake View Est._Nakuru,05026 - Lake View Est._Nakuru,5026,GAME PARK 11KV EX MWARIKI,MWARIKI 33/11KV,Nakuru,300610127,1290,GAME PARK
36.07278028,0.31810475,05028 - Farm Race Track,05028 - Farm Race Track,5028,GAME PARK 11KV EX MWARIKI,MWARIKI 33/11KV,Nakuru,300610130,99,NAKURU
36.05746056,0.3280375,05030 - Ronda Next To St Luk,05030 - Ronda Next To St Luk,5030,GAME PARK 11KV EX MWARIKI,MWARIKI 33/11KV,Nakuru,300610140,510,RONDA NAKURU
36.06916414,0.28919,05032 - Central Police_Nakuru,05032 - Central Police_Nakuru,5032,SOUTH 11KV EX NAKURU,NAKURU DEPOT,Nakuru,300639781,279,nakuru county police headquar
36.06468083,0.285557722,05034 - Ndimu House,05034 - Ndimu House,5034,NAKURU TOWN 11KV EX NAKURU,NAKURU DEPOT,Nakuru,300610028,911,NAKURU
36.05855472,0.284637167,05035 - Chery Blossom,05035 - Chery Blossom,5035,MENENGAI 11KV EX NAKURU,NAKURU DEPOT,Nakuru,300609974,449,nearby abc feeds limited
36.06398056,0.290469167,05036 - Nyakio Farmers,05036 - Nyakio Farmers,5036,SOUTH 11KV EX NAKURU,NAKURU DEPOT,Nakuru,300610024,717,OPPOSITE CHARISMATA REVIVAL C
36.05897667,0.297345833,05038 - IBRAHIM ESTATE-LOWER,05038 - IBRAHIM ESTATE-LOWER,5038,SOUTH 11KV EX NAKURU,NAKURU DEPOT,Nakuru,300653492,1837,wedtside school
36.05689083,0.284179972,05040 - Elliots,05040 - Elliots,5040,MENENGAI 11KV EX NAKURU,NAKURU DEPOT,Nakuru,300609979,179,ELIOTS INDUSTRY
36.0566475,0.285712194,05041 - Printing House,05041 - Printing House,5041,MENENGAI 11KV EX NAKURU,NAKURU DEPOT,Nakuru,300609973,835,near ceramic tiles
36.0546575,0.285616472,05043 - Samcon,05043 - Samcon,5043,MENENGAI 11KV EX NAKURU,NAKURU DEPOT,Nakuru,300609976,454,samcom
36.05400778,0.282401944,05048 - F.I.T.C,05048 - F.I.T.C,5048,MENENGAI 11KV EX NAKURU,NAKURU DEPOT,Nakuru,300609981,856,FITC
36.06080278,0.288626944,05050 - Asosciated Motors,05050 - Asosciated Motors,5050,NAKURU TOWN 11KV EX NAKURU,NAKURU DEPOT,Nakuru,300639956,1242,INDUSTRIAL AREA
36.14140472,0.2997075,05055 - Lanet,05055 - Lanet,5055,CAMP  EX LANET,LANET SUBSTATION,Nakuru,300611511,1040,Lanet center
36.14498056,0.297083611,05057 - Kenya Riffles Gate,05057 - Kenya Riffles Gate,5057,CAMP  EX LANET,LANET SUBSTATION,Nakuru,300611517,461,outside kenya rifles
36.14944778,0.298948333,05059 - Lanet,05059 - Lanet,5059,CAMP  EX LANET,LANET SUBSTATION,Nakuru,300611563,384,LANET ARMY RIFLES
36.15549028,0.289268611,05061 - Luck Hurst Farm,05061 - Luck Hurst Farm,5061,CAMP  EX LANET,LANET SUBSTATION,Nakuru,300611568,178,LUCK HURST FARM...LANET
36.04256889,0.354151667,05062 - KAMASAAI  B/H,05062 - KAMASAAI  B/H,5062,GAME PARK 11KV EX MWARIKI,MWARIKI 33/11KV,Nakuru,300612561,12,NAKURU
36.16202222,0.2909475,05063 - Aftc Lanet,05063 - Aftc Lanet,5063,CAMP  EX LANET,LANET SUBSTATION,Nakuru,300611570,2068,lanet Armed forces camp
36.13577558,0.297459167,05065 - Lanet Petrol Station,05065 - Lanet Petrol Station,5065,NORTH 11Kv EX LANET,LANET SUBSTATION,Nakuru,300607323,405,lanet
36.13959111,0.292664167,05067 - Preirie Estate No 2,05067 - Preirie Estate No 2,5067,NORTH 11Kv EX LANET,LANET SUBSTATION,Nakuru,300607324,267,LANET AREA
36.13202778,0.288504444,05069 - Hiland,05069 - Hiland,5069,NORTH 11Kv EX LANET,LANET SUBSTATION,Nakuru,300607327,305,OFF NAKURU NAIROBI ROAD
36.12260056,0.290077778,05071 - Kiratina_Free Area,05071 - Kiratina_Free Area,5071,NORTH 11Kv EX LANET,LANET SUBSTATION,Nakuru,300607335,713,REHEMA GOSPEL MINISTRIES
36.11192694,0.288015,05075 - Free Area,05075 - Free Area,5075,NORTH 11Kv EX LANET,LANET SUBSTATION,Nakuru,300607347,527,NEAR BISMAK PETROL STATION
36.10829806,0.279851389,05077 - HYRAX PRIMARY SCHOOL,05077 - HYRAX PRIMARY SCHOOL,5077,NORTH 11Kv EX LANET,LANET SUBSTATION,Nakuru,300607358,200,hyrax primary school
36.07675417,0.303049167,05079 - Flamingo Estate,05079 - Flamingo Estate,5079,GAME PARK 11KV EX MWARIKI,MWARIKI 33/11KV,Nakuru,300610114,1983,flamingo estate
36.10477722,0.266298611,05087 - Nakuru Worker'S Estate,05087 - Nakuru Worker'S Estate,5087,NORTH 11Kv EX LANET,LANET SUBSTATION,Nakuru,300612308,2254,BETWEEN NEW ELIMU HIGH SCHOOL
36.13804444,0.261060556,05089 - Menengai East Oberho,05089 - Menengai East Oberho,5089,MAILI SABA TOWNFEEDER EXBAHATI,BAHATI  33/11KV  S/STN,Nakuru,300612279,869,HA FRAME
36.14433917,0.256968889,05091 - ENGASUHRA APPLICANT,05091 - ENGASUHRA APPLICANT,5091,MAILI SABA TOWNFEEDER EXBAHATI,BAHATI  33/11KV  S/STN,Nakuru,300657125,105,st georges senior girls
36.14892389,0.248931389,05093 - Engashura Farm Hse &,05093 - Engashura Farm Hse &,5093,MAILI SABA TOWNFEEDER EXBAHATI,BAHATI  33/11KV  S/STN,Nakuru,300611946,358,murunyu
36.15740417,0.245051389,05095 - Murunyu,05095 - Murunyu,5095,MAILI SABA TOWNFEEDER EXBAHATI,BAHATI  33/11KV  S/STN,Nakuru,300611947,468,MURUNYU
36.1475275,0.2317325,05097 - Engashura Farm Boreh,05097 - Engashura Farm Boreh,5097,MAILI SABA TOWNFEEDER EXBAHATI,BAHATI  33/11KV  S/STN,Nakuru,300611956,919,kwa amos
36.14663889,0.217197639,05099 - NGECHA FARM,05099 - NGECHA FARM,5099,MAILI SABA TOWNFEEDER EXBAHATI,BAHATI  33/11KV  S/STN,Nakuru,300611958,32,Ngecha farm
36.15125572,0.212290833,05101 - NGECHA FARM,05101 - NGECHA FARM,5101,MAILI SABA TOWNFEEDER EXBAHATI,BAHATI  33/11KV  S/STN,Nakuru,300640036,52,NGECHA FARM
36.16066389,0.203658611,05103 - R.V FAMERS,05103 - R.V FAMERS,5103,MAILI SABA TOWNFEEDER EXBAHATI,BAHATI  33/11KV  S/STN,Nakuru,300611970,259,mung'etho area
36.17375667,0.083497833,05129 - Kihoto,05129 - Kihoto,5129,KIRENGERO 11KV EX SUBUKIA,SUBUKIA,Nakuru,300610379,328,KIHOTO
36.17931722,0.082453889,05131 - Kihoto Farm,05131 - Kihoto Farm,5131,KIRENGERO 11KV EX SUBUKIA,SUBUKIA,Nakuru,300610378,233,kihoto
36.06949694,0.303286389,05132 - RONDA,05132 - RONDA,5132,RACE TRACK 11KV EX MWARIKI,NAKURU DEPOT,Nakuru,300610085,2064,sundowner hotel
36.16816589,0.066040833,05133 - Mahinga Farm,05133 - Mahinga Farm,5133,KIRENGERO 11KV EX SUBUKIA,SUBUKIA,Nakuru,300610373,213,MAHINGA FARM
36.05575361,0.296434167,05134 - NAKURU TANNERS,05134 - NAKURU TANNERS,5134,SOUTH 11KV EX NAKURU,NAKURU DEPOT,Nakuru,300640064,1072,Nakuru tanners
36.18285111,0.064372778,05135 - Maombi,05135 - Maombi,5135,KIRENGERO 11KV EX SUBUKIA,SUBUKIA,Nakuru,300610371,175,near miki hills academy
36.12649972,0.101459278,05137 - Solai,05137 - Solai,5137,NYAHURURU/MARALAL 33Kv L1,LANET SUBSTATION,Nakuru,300611207,546,within the provincial adminis
36.12983028,0.141275278,05139 - Solai,05139 - Solai,5139,NYAHURURU/MARALAL 33Kv L1,LANET SUBSTATION,Nakuru,300611199,117,Solai
36.125305,0.130938333,05141 - Solai,05141 - Solai,5141,NYAHURURU/MARALAL 33Kv L1,LANET SUBSTATION,Nakuru,300611202,20,SOLAI
36.13154889,0.1053875,05143 - Solai,05143 - Solai,5143,NYAHURURU/MARALAL 33Kv L1,LANET SUBSTATION,Nakuru,300611204,103,millmet near main house
36.13906944,0.108287778,05145 - GLENCAIR FARM POLLAND,05145 - GLENCAIR FARM POLLAND,5145,NYAHURURU/MARALAL 33Kv L1,LANET SUBSTATION,Nakuru,300611206,116,SOLAI
36.13462386,0.088818056,05147 - Solai Centre,05147 - Solai Centre,5147,NYAHURURU/MARALAL 33Kv L1,LANET SUBSTATION,Nakuru,300611209,110,SOLAI CENTRE
36.24584389,0.036424167,05149 - P.C.E.A School_Subukia,05149 - P.C.E.A School_Subukia,5149,NYAHURURU/MARALAL 33Kv L1,LANET SUBSTATION,Nakuru,300611244,63,pcea church
35.80171114,0.299105278,05155 - Elburgon,05155 - Elburgon,5155,MOLO 11KV EX ELBURGON,ELBURGON,Nakuru,300610785,3383,ST PETER CLEVERS PRIMARY SCHO
36.32012361,0.497980833,05165 - Gilgil Town/G P O To,05165 - Gilgil Town/G P O To,5165,GILGIL TOWN 11KV EX GILGI,GILGIL,Nakuru,300607790,580,GILGIL TOWN
36.328105,0.503133056,05167 - BONDENI ESTATE GILGIL,05167 - BONDENI ESTATE GILGIL,5167,GILGIL TOWN 11KV EX GILGI,GILGIL,Nakuru,300607803,2410,JAMIA MOSQUE
36.34209972,0.4964575,05169 - Gilgil Kenyatta Barr,05169 - Gilgil Kenyatta Barr,5169,GILGIL TOWN 11KV EX GILGI,GILGIL,Nakuru,300607849,495,next to nyahururu road
36.35785722,0.498428333,05170 - Prembroke School,05170 - Prembroke School,5170,GILGIL TOWN 11KV EX GILGI,GILGIL,Nakuru,300607845,49,nys farm
36.36314972,0.497216389,05171 - Pembrok School,05171 - Pembrok School,5171,GILGIL TOWN 11KV EX GILGI,GILGIL,Nakuru,300607842,162,PEMBROKE SCHOOL
36.37714167,0.5037675,05172 - NAWASCO GILGIL,05172 - NAWASCO GILGIL,5172,GILGIL TOWN 11KV EX GILGI,GILGIL,Nakuru,300607841,24,nawasco
36.39427222,0.49862,05173 - Malewa (Gilgil),05173 - Malewa (Gilgil),5173,GILGIL TOWN 11KV EX GILGI,GILGIL,Nakuru,300607852,92,gatudu center
36.36880133,0.498704167,05174 - Litle Gilgil,05174 - Litle Gilgil,5174,GILGIL TOWN 11KV EX GILGI,GILGIL,Nakuru,300607867,142,GATUHI
36.37013194,0.492125,05175 - Langalanga,05175 - Langalanga,5175,GILGIL TOWN 11KV EX GILGI,GILGIL,Nakuru,300607866,112,SANATA CHILDREN'S  HOME
36.36992417,0.488232222,05176 - Litle Gilgil,05176 - Litle Gilgil,5176,GILGIL TOWN 11KV EX GILGI,GILGIL,Nakuru,300607865,56,Milironi
36.36940733,0.484316056,05177 - Litle Gilgil,05177 - Litle Gilgil,5177,GILGIL TOWN 11KV EX GILGI,GILGIL,Nakuru,300607863,24,Bahati firm
36.36878103,0.480447778,05178 - Merlin Farm,05178 - Merlin Farm,5178,GILGIL TOWN 11KV EX GILGI,GILGIL,Nakuru,300607864,12,White firm
36.36464278,0.478484722,05179 - Litle Gilgil,05179 - Litle Gilgil,5179,GILGIL TOWN 11KV EX GILGI,GILGIL,Nakuru,300607861,30,LITTLE GILGIL/ (RINGE MOUNT)
36.364565,0.475823056,05180 - Litle Gilgil,05180 - Litle Gilgil,5180,GILGIL TOWN 11KV EX GILGI,GILGIL,Nakuru,300607858,3,RINGE MOUNT AREA
36.36441278,0.470323333,05181 - Gilgil,05181 - Gilgil,5181,GILGIL TOWN 11KV EX GILGI,GILGIL,Nakuru,300607859,23,river house compound
36.36396528,0.465650833,05182 - Litle Gilgil,05182 - Litle Gilgil,5182,GILGIL TOWN 11KV EX GILGI,GILGIL,Nakuru,300607860,103,gh
36.32420889,0.497133056,05183 - Gilgil Railway Station,05183 - Gilgil Railway Station,5183,GILGIL TOWN 11KV EX GILGI,GILGIL,Nakuru,300607793,521,GILGIL RAILWAY POLICE BASE
36.38408781,0.645735833,05201 - MARULA LOCAL SUBSTATI,05201 - MARULA LOCAL SUBSTATI,5201,NORTH SHORE 11KV EX MARUL,MARULA,Nakuru,300608652,14,marula substation area
36.42684028,0.711101389,05205 - Economic Housing Gro,05205 - Economic Housing Gro,5205,KIHOTO NAIVASHA TOWN 11KV,KIHOTO SUBSTATION,Nakuru,300609104,357,economic housing group ltd/ n
36.43369408,0.717934556,05206 - Naivasha Town Chotar,05206 - Naivasha Town Chotar,5206,KIHOTO NAIVASHA TOWN 11KV,KIHOTO SUBSTATION,Nakuru,300609137,3596,OCEANIC PETROL STN.
36.43643389,0.713088333,05207 - Sokoni Road_Naivasha,05207 - Sokoni Road_Naivasha,5207,KIHOTO NAIVASHA TOWN 11KV,KIHOTO SUBSTATION,Nakuru,300609122,2208,AIC NAIVASHA TOWN.
36.43626333,0.719000472,05208 - Dist.Hospital_Naivasha,05208 - Dist.Hospital_Naivasha,5208,KIHOTO NAIVASHA TOWN 11KV,KIHOTO SUBSTATION,Nakuru,300609138,8179,nxt to faulu bank
36.44019528,0.733756306,05209 - NAIVASHA TOWN,05209 - NAIVASHA TOWN,5209,KIHOTO NAIVASHA TOWN 11KV,KIHOTO SUBSTATION,Nakuru,300644234,276,naivasha narok restaurant
36.43532917,0.708175833,05212 - Naivasha Boarding Sch.,05212 - Naivasha Boarding Sch.,5212,KIHOTO NAIVASHA TOWN 11KV,KIHOTO SUBSTATION,Nakuru,300609127,1028,NAIVASHA BOARDING PRIMARY
36.07346278,0.275635833,05213 - Hospital T Centre,05213 - Hospital T Centre,5213,MILIMANI  11KV  EX  NAKURU,NAKURU DEPOT,Nakuru,300610209,275,Nakuru Kmtc
35.73745417,0.251404722,05214 - Molo Polytechnic,05214 - Molo Polytechnic,5214,MOLO 11KV EX ELBURGON,ELBURGON,Nakuru,300610826,891,molo social hall
35.73689306,0.247558889,05215 - Molo Dist. Hospital,05215 - Molo Dist. Hospital,5215,MOLO 11KV EX ELBURGON,ELBURGON,Nakuru,300610834,3505,NEAR MOLO DISTRICT HOSPITAL
35.73204528,0.2482375,05216 - POLICE STATION - MOLO,05216 - POLICE STATION - MOLO,5216,MOLO 11KV EX ELBURGON,ELBURGON,Nakuru,300610837,31748,POLICE STATION - MOLO TWN
35.72856806,0.244806111,05217 - NATIONAL BANK MOLO,05217 - NATIONAL BANK MOLO,5217,MOLO 11KV EX ELBURGON,ELBURGON,Nakuru,300610856,2825,NEAR NATIONAL BANK
35.73386703,0.243818056,05218 - K.C.C Depot_Molo,05218 - K.C.C Depot_Molo,5218,MOLO 11KV EX ELBURGON,ELBURGON,Nakuru,300610839,147,kcc depot molo
35.73456931,0.240953889,05219 - Molo Acdemy,05219 - Molo Acdemy,5219,MOLO 11KV EX ELBURGON,ELBURGON,Nakuru,300610840,218,Next to Molo Accademy
36.15157572,0.365614444,05220 - Nderi Borehole,05220 - Nderi Borehole,5220,GILGIL /MARULA EX LANET,LANET SUBSTATION,Nakuru,300607772,602,opposite JB Drilling company
36.19448306,0.468902083,05221 - Soysambu Estate,05221 - Soysambu Estate,5221,GILGIL /MARULA EX LANET,LANET SUBSTATION,Nakuru,300607783,150,SOYSAMBU CONSERVANCY HQ
35.70431028,0.225095556,05222 - HIGHLAND HOTEL,05222 - HIGHLAND HOTEL,5222,MOLO 11KV EX ELBURGON,ELBURGON,Nakuru,300610869,0,HIGHLAND HOTEL -MOLO
35.75922306,0.281101944,05223 - St. Andrews School,05223 - St. Andrews School,5223,RONGAI OLENGURUONE33K EX SOILO,NAKURU WEST (SOILO)  SUBSTATION,Nakuru,300646864,191,near st andrew
35.77411444,0.2683155,05224 - Giteru Farm,05224 - Giteru Farm,5224,MOLO 11KV EX ELBURGON,ELBURGON,Nakuru,300610812,73,gaturu farm
35.77967361,0.258090556,05225 - Hon Njenga Karume,05225 - Hon Njenga Karume,5225,MOLO 11KV EX ELBURGON,ELBURGON,Nakuru,300610816,24,TURI
35.73710111,0.220846944,05226 - Kivunja,05226 - Kivunja,5226,MOLO 11KV EX ELBURGON,ELBURGON,Nakuru,300610846,476,MOLO
35.71377528,0.223228056,05228 - KARI INSTITUTE,05228 - KARI INSTITUTE,5228,MOLO 11KV EX ELBURGON,ELBURGON,Nakuru,300610868,59,kari institute molo
36.42954389,0.719006028,05231 - Golf Course/ Nmc Sew,05231 - Golf Course/ Nmc Sew,5231,KIHOTO NAIVASHA TOWN 11KV,KIHOTO SUBSTATION,Nakuru,300608125,249,NAIVASHA SEWERAGE
36.43703722,0.749053889,05232 - Aberdare Estate,05232 - Aberdare Estate,5232,KIHOTO SOUTHLAKE 11KV,KIHOTO SUBSTATION,Nakuru,300608006,121,ABARDARE ESTATE
36.43114944,0.761646944,05233 - Oserian Dev Coy,05233 - Oserian Dev Coy,5233,KIHOTO SOUTHLAKE 11KV,KIHOTO SUBSTATION,Nakuru,300608002,14,BURCHS RESORT
36.42818389,0.766146944,05234 - Olnjorowa Ltd (Mbegu,05234 - Olnjorowa Ltd (Mbegu,5234,KIHOTO SOUTHLAKE 11KV,KIHOTO SUBSTATION,Nakuru,300607998,38,olnjorowa limited
36.42216194,0.772764722,05235 - L.Naivasha Country C,05235 - L.Naivasha Country C,5235,KIHOTO SOUTHLAKE 11KV,KIHOTO SUBSTATION,Nakuru,300607990,360,LAKE NAIVASHA COUNTRY CLUB
36.42297417,0.779079444,05236 - Marina Club,05236 - Marina Club,5236,KIHOTO SOUTHLAKE 11KV,KIHOTO SUBSTATION,Nakuru,300607987,44,CHEPIRELWE LTD FARM
36.414315,0.7913675,05237 - Sanctury Farm,05237 - Sanctury Farm,5237,SOUTH LAKE SHORE 11KV EX,DCK,Nakuru,300607986,46,SANCTUARY FARM HOUSES
36.40446083,0.7978925,05238 - Neyland Airstrip,05238 - Neyland Airstrip,5238,SOUTH LAKE SHORE 11KV EX,DCK,Nakuru,300607977,16,kijabe
36.40179831,0.802675167,05239 - Lake Naivasha Vineya,05239 - Lake Naivasha Vineya,5239,SOUTH LAKE SHORE 11KV EX,DCK,Nakuru,300607970,85,lamona farm
36.39886611,0.813922778,05240 - D.E.B Pri.Sch_Longonot,05240 - D.E.B Pri.Sch_Longonot,5240,SOUTH LAKE SHORE 11KV EX,DCK,Nakuru,300607966,3,longonot deb pry sch
36.38764056,0.814156389,05241 - Longonot Farm,05241 - Longonot Farm,5241,SOUTH LAKE SHORE 11KV EX,DCK,Nakuru,300607964,131,LONGONOT FARM
36.38385436,0.825084722,05242 - Longonot Horticultur,05242 - Longonot Horticultur,5242,SOUTH LAKE SHORE 11KV EX,DCK,Nakuru,300607963,8,LONGONOT HORTICULTURE
36.39058583,0.830610278,05243 - Kedong Ranch,05243 - Kedong Ranch,5243,SOUTH LAKE SHORE 11KV EX,DCK,Nakuru,300607961,56,kadong ranch
36.39065167,0.812100833,05244 - Safari,05244 - Safari,5244,SOUTH LAKE SHORE 11KV EX,DCK,Nakuru,300607965,365,safaricom booster naivasha so
36.39395139,0.804069167,05245 - Home Grown_Flamingo,05245 - Home Grown_Flamingo,5245,SOUTH LAKE SHORE 11KV EX,DCK,Nakuru,300607969,300,finlays firm
36.33332083,0.827403056,05246 - Fish Eagle Inns & Fi,05246 - Fish Eagle Inns & Fi,5246,NORTH LAKE SHORE 11KV EX,DCK,Nakuru,300607258,112,FISH EAGLE INN OTHER SIDE OF
36.31582806,0.814446667,05247 - ELSAMARA COSNERVATION,05247 - ELSAMARA COSNERVATION,5247,NORTH LAKE SHORE 11KV EX,DCK,Nakuru,300638739,40,el samere hotel
36.30613861,0.818823611,05248 - Zwager,05248 - Zwager,5248,NORTH LAKE SHORE 11KV EX,DCK,Nakuru,300607271,70,zger
36.30294194,0.820076944,05249 - Oserian Dev Company,05249 - Oserian Dev Company,5249,NORTH LAKE SHORE 11KV EX,DCK,Nakuru,300607272,50,OSERIAN ENG W/SHOP
36.29890861,0.818645611,05250 - OSERIAN DOWN LAKE PUMP,05250 - OSERIAN DOWN LAKE PUMP,5250,NORTH LAKE SHORE 11KV EX,DCK,Nakuru,300607274,250,OSERIAN WATER PUMP
36.33026861,0.821379444,05252 - Gold Smith,05252 - Gold Smith,5252,NORTH LAKE SHORE 11KV EX,DCK,Nakuru,300607265,178,kentalya ltd
35.74641917,0.254235,05254 - Wanaaruona Saw Mills,05254 - Wanaaruona Saw Mills,5254,MOLO 11KV EX ELBURGON,ELBURGON,Nakuru,300610829,604,kenyatta face 2
35.73022083,0.236510556,05255 - Savana Sawmill,05255 - Savana Sawmill,5255,MOLO 11KV EX ELBURGON,ELBURGON,Nakuru,300610844,170,NEXT TO MOLO NORTH FOREST PLA
36.44817389,0.703073889,05258 - G.K.Prisons_Naivasha,05258 - G.K.Prisons_Naivasha,5258,KIHOTO NAIVASHA TOWN 11KV,KIHOTO SUBSTATION,Nakuru,300609132,27,gk prison naivasha
36.05038625,0.279561111,05260 - Lamson Industries Ltd,05260 - Lamson Industries Ltd,5260,MENENGAI 11KV EX NAKURU,NAKURU DEPOT,Nakuru,300609983,919,opp megaspin ltd
36.4474875,0.700031417,05263 - G.K.Prisons_Naivasha,05263 - G.K.Prisons_Naivasha,5263,KIHOTO NAIVASHA TOWN 11KV,KIHOTO SUBSTATION,Nakuru,300609131,234,gk prison
36.184022,0.254322778,05264 - Wanyororo,05264 - Wanyororo,5264,CAMP  EX LANET,LANET SUBSTATION,Nakuru,300611603,456,wanyororo
36.18696194,0.283141667,05265 - Beef Research Station,05265 - Beef Research Station,5265,CAMP  EX LANET,LANET SUBSTATION,Nakuru,300611583,1080,beef research
36.05929056,0.285336028,05267 - Timber Mills Road,05267 - Timber Mills Road,5267,MENENGAI 11KV EX NAKURU,NAKURU DEPOT,Nakuru,300610231,819,near mrm
36.17512417,0.026233333,05271 - Gindini Farm,05271 - Gindini Farm,5271,NYAHURURU/MARALAL 33Kv L1,LANET SUBSTATION,Nakuru,300611239,237,gatongo
36.05961111,0.283992194,05276 - Animal Feeds Mills,05276 - Animal Feeds Mills,5276,MENENGAI 11KV EX NAKURU,NAKURU DEPOT,Nakuru,300609975,1043,unga mills
36.34504444,0.828519722,05283 - Nyakinyua Farm,05283 - Nyakinyua Farm,5283,NORTH LAKE SHORE 11KV EX,DCK,Nakuru,300607252,12,DOUBLE DUTCH FARM
36.05605722,0.287042778,05285 - Timber Mill,05285 - Timber Mill,5285,MENENGAI 11KV EX NAKURU,NAKURU DEPOT,Nakuru,300609972,734,menegai refineries
36.06024694,0.293751667,05286 - PIVOT ROUNDABOUT,05286 - PIVOT ROUNDABOUT,5286,SOUTH 11KV EX NAKURU,NAKURU DEPOT,Nakuru,300663420,779,NAKURU
36.2639925,0.826521111,05289 - Kongoni,05289 - Kongoni,5289,NORTH LAKE SHORE 11KV EX,DCK,Nakuru,300607279,45,kongoni
36.26328583,0.822551944,05290 - Oserian Dev Coy,05290 - Oserian Dev Coy,5290,NORTH LAKE SHORE 11KV EX,DCK,Nakuru,300607280,70,oserian
36.08484986,0.322049444,05293 - National Park,05293 - National Park,5293,GAME PARK 11KV EX MWARIKI,MWARIKI 33/11KV,Nakuru,300610128,0,NAKURU
36.33793833,0.489045833,05299 - War Cementry Gilgil,05299 - War Cementry Gilgil,5299,GILGIL TOWN 11KV EX GILGI,GILGIL,Nakuru,300607837,686,coulson school
36.11004667,0.151276,05302 - Banita,05302 - Banita,5302,NYAHURURU/MARALAL 33Kv L1,LANET SUBSTATION,Nakuru,300611128,56,njenini coffee farm
36.10478972,0.149566389,05303 - Banita,05303 - Banita,5303,NYAHURURU/MARALAL 33Kv L1,LANET SUBSTATION,Nakuru,300611129,111,Bahati Oasis Academy
36.10391694,0.145268056,05304 - NAWASCO BOREHOLE -1,05304 - NAWASCO BOREHOLE -1,5304,NYAHURURU/MARALAL 33Kv L1,LANET SUBSTATION,Nakuru,300611131,0,nawasco  borehole
35.75985056,0.25038675,05305 - Njenga Karume Farm,05305 - Njenga Karume Farm,5305,MOLO 11KV EX ELBURGON,ELBURGON,Nakuru,300610832,14,MOLO
36.43220056,0.757686944,05307 - Bees Garden,05307 - Bees Garden,5307,KIHOTO SOUTHLAKE 11KV,KIHOTO SUBSTATION,Nakuru,300608031,0,JACK MAN HORSE RACING
36.45330861,0.731155833,05311 - Kiwa Highway Motel,05311 - Kiwa Highway Motel,5311,KIHOTO NAIVASHA TOWN 11KV,KIHOTO SUBSTATION,Nakuru,300638651,819,kiwa highway motel
36.28131278,0.827568333,05312 - Bel,05312 - Bel,5312,NORTH LAKE SHORE 11KV EX,DCK,Nakuru,300607276,48,oserian
36.29762111,0.823284444,05313 - NO NAME,05313 - NO NAME,5313,NORTH LAKE SHORE 11KV EX,DCK,Nakuru,300607273,300,OSERIAN FARM
35.81699542,0.293600833,05316 - Olaragwai Pump Hse,05316 - Olaragwai Pump Hse,5316,MOLO 11KV EX ELBURGON,ELBURGON,Nakuru,300610777,66,elburgon
36.32644361,0.499553611,05317 - Gilgil Town/E A R Sh,05317 - Gilgil Town/E A R Sh,5317,GILGIL TOWN 11KV EX GILGI,GILGIL,Nakuru,300607808,1565,Next to Safe house
36.34917778,0.829861667,05320 - Sulmac Flowers,05320 - Sulmac Flowers,5320,NORTH LAKE SHORE 11KV EX,DCK,Nakuru,300607245,3377,HOME GROWN MAIN HOSPITAL
36.34152306,0.670401944,05321 - Mathara Holdings,05321 - Mathara Holdings,5321,NORTH SHORE 11KV EX MARUL,MARULA,Nakuru,300607742,0,KARUGU FARM
36.33800667,0.676238333,05322 - Mathara Holdings,05322 - Mathara Holdings,5322,NORTH SHORE 11KV EX MARUL,MARULA,Nakuru,300607743,57,mathara holdings farm
36.33305028,0.676593333,05323 - Mathara Holdings,05323 - Mathara Holdings,5323,NORTH SHORE 11KV EX MARUL,MARULA,Nakuru,300607744,10,malewa bay estate
36.33499211,0.6900275,05324 - Mario Villa,05324 - Mario Villa,5324,NORTH SHORE 11KV EX MARUL,MARULA,Nakuru,300607745,135,colour crop
36.33396481,0.693776667,05325 - Brono Villa,05325 - Brono Villa,5325,NORTH SHORE 11KV EX MARUL,MARULA,Nakuru,300608653,19,colour crop farm
36.3336235,0.699581944,05326 - Nyanjugu Investment,05326 - Nyanjugu Investment,5326,NORTH SHORE 11KV EX MARUL,MARULA,Nakuru,300608657,10,next to nyanjui farm
36.336475,0.6967375,05327 - Nyanjugu Farm,05327 - Nyanjugu Farm,5327,NORTH SHORE 11KV EX MARUL,MARULA,Nakuru,300608658,0,nyangugu farm
36.33759361,0.701404111,05328 - Nyanjugu Investment,05328 - Nyanjugu Investment,5328,NORTH SHORE 11KV EX MARUL,MARULA,Nakuru,300608659,10,nanjugu field
36.32901667,0.713476667,05330 - Loldia Farm Office,05330 - Loldia Farm Office,5330,NORTH SHORE 11KV EX MARUL,MARULA,Nakuru,300608662,16,near ajabu house
36.30969861,0.705524444,05333 - Loldia Farm,05333 - Loldia Farm,5333,NORTH SHORE 11KV EX MARUL,MARULA,Nakuru,300608670,100,loldio estate
36.29553833,0.722325,05336 - VAUGHAN HSE,05336 - VAUGHAN HSE,5336,NORTH SHORE 11KV EX MARUL,MARULA,Nakuru,300608826,0,bilashaka flowers
36.07372667,0.2831425,05337 - Kenyatta Lane,05337 - Kenyatta Lane,5337,SOUTH 11KV EX NAKURU,NAKURU DEPOT,Nakuru,300607438,1037,NAKURU
36.31371778,0.715214722,05338 - J.S. Nganga Farm,05338 - J.S. Nganga Farm,5338,NORTH SHORE 11KV EX MARUL,MARULA,Nakuru,300608832,147,near lake naivasha pump-ngang
36.29317,0.717487278,05339 - VAUGHAN BORE HOLE,05339 - VAUGHAN BORE HOLE,5339,NORTH SHORE 11KV EX MARUL,MARULA,Nakuru,300608828,50,bilashaka farm
36.28604919,0.724249722,05340 - Rocco Farm,05340 - Rocco Farm,5340,NORTH SHORE 11KV EX MARUL,MARULA,Nakuru,300608859,12,rocco flowers office
36.14441778,0.330904167,05342 - Lanet W/Shops,05342 - Lanet W/Shops,5342,GILGIL /MARULA EX LANET,LANET SUBSTATION,Nakuru,300638639,1210,mbogos
36.04508,0.279618889,05343 - Kenya Seed,05343 - Kenya Seed,5343,MENENGAI 11KV EX NAKURU,NAKURU DEPOT,Nakuru,300609986,198,kenya seed(Nakuru)
36.0923875,0.283904306,05345 - Timber Purchase Hous,05345 - Timber Purchase Hous,5345,SOUTH EX LANET,LANET SUBSTATION,Nakuru,300607401,822,near elizabethel guesthouse
35.73616111,0.253409167,05349 - Turi Butchery,05349 - Turi Butchery,5349,RONGAI OLENGURUONE33K EX SOILO,NAKURU WEST (SOILO)  SUBSTATION,Nakuru,300610968,2098,capital supermarket
36.05327306,0.297696667,05351 - KOINANGE ESTATE,05351 - KOINANGE ESTATE,5351,SOUTH 11KV EX NAKURU,NAKURU DEPOT,Nakuru,300638641,1326,nem med clinic
36.072845,0.28343225,05353 - Erose Cinema,05353 - Erose Cinema,5353,SOUTH 11KV EX NAKURU,NAKURU DEPOT,Nakuru,300607441,294,NAKURU
35.95715194,0.181527778,05355 - kabarak farm,05355 - kabarak farm,5355,UNIVERSITY FEEDER EX KABARAK,KABARAK 33/11 SUBSTATION,Nakuru,300664784,15,KABARAK DAIRY
36.14291278,0.075488611,05356 - SOLAI,05356 - SOLAI,5356,NYAHURURU/MARALAL 33Kv L1,LANET SUBSTATION,Nakuru,300611229,289,Patel
36.05566389,0.290755833,05358 - PYRETHRUM STAFF QUART,05358 - PYRETHRUM STAFF QUART,5358,SOUTH 11KV EX NAKURU,NAKURU DEPOT,Nakuru,300638643,2013,Pyrethrum Estate
36.08681778,0.246453056,05359 - MICROWAVE STATION,05359 - MICROWAVE STATION,5359,MILIMANI  11KV  EX  NAKURU,LANET SUBSTATION,Nakuru,300610226,50,KIRIMA
36.4454325,0.702377694,05360 - G.K.Prisons_Naivasha,05360 - G.K.Prisons_Naivasha,5360,KIHOTO NAIVASHA TOWN 11KV,KIHOTO SUBSTATION,Nakuru,300609130,6,GK prison
36.13643306,0.144076667,05361 - Solai,05361 - Solai,5361,NYAHURURU/MARALAL 33Kv L1,LANET SUBSTATION,Nakuru,300611200,59,TEREMUKA FARM
36.06003278,0.317383361,05362 - Sewage Works,05362 - Sewage Works,5362,GAME PARK 11KV EX MWARIKI,MWARIKI 33/11KV,Nakuru,300610137,1292,NAKURU
36.11874956,0.2044925,05366 - Bahati,05366 - Bahati,5366,NYAHURURU/MARALAL 33Kv L1,LANET SUBSTATION,Nakuru,300611119,158,jingariri farm
36.28054583,0.833327778,05369 - Osserian Development,05369 - Osserian Development,5369,NORTH LAKE SHORE 11KV EX,DCK,Nakuru,300607277,1383,OSERIAN FARM
35.89800222,0.142974722,05370 - Salat Farm,05370 - Salat Farm,5370,UNIVERSITY FEEDER EX KABARAK,KABARAK 33/11 SUBSTATION,Nakuru,300638628,12,sarat farm
36.06725442,0.305445278,05372 - Langa Langa Estate P,05372 - Langa Langa Estate P,5372,RACE TRACK 11KV EX MWARIKI,NAKURU DEPOT,Nakuru,300610087,1418,next to zoopis cafe
35.86346556,0.175572778,05375 - Rongai Worksh,05375 - Rongai Worksh,5375,RONGAI TOWN 11KV EX RONGA,RONGAI,Nakuru,300608677,394,Rongai works
35.86048083,0.170892778,05377 - Rongai Town,05377 - Rongai Town,5377,RONGAI TOWN 11KV EX RONGA,RONGAI,Nakuru,300608686,447,next to the RSRM ltd
35.79668972,0.311968889,05387 - Nyayo Indigenious Tr,05387 - Nyayo Indigenious Tr,5387,MOLO 11KV EX ELBURGON,ELBURGON,Nakuru,300610790,74,COUNTY FOREST
36.06467667,0.273296389,05388 - Vetinary Houses,05388 - Vetinary Houses,5388,MILIMANI  11KV  EX  NAKURU,NAKURU DEPOT,Nakuru,300610212,251,OPPOSITE NAKURU GOLF CLUB
36.08285528,0.303057222,05389 - Flamingo 2 Shuleni R,05389 - Flamingo 2 Shuleni R,5389,GAME PARK 11KV EX MWARIKI,MWARIKI 33/11KV,Nakuru,300610115,2532,flamingo 2 shuleni R
36.07764389,0.2923875,05390 - Flamingo Estate 2,05390 - Flamingo Estate 2,5390,GAME PARK 11KV EX MWARIKI,MWARIKI 33/11KV,Nakuru,300607423,702,central rift conference
36.05632722,0.2951425,05392 - Koinange Estate,05392 - Koinange Estate,5392,SOUTH 11KV EX NAKURU,NAKURU DEPOT,Nakuru,300638619,1059,koinange estates
36.05738611,0.293600278,05393 - KOINANGE ESTATE - 2,05393 - KOINANGE ESTATE - 2,5393,SOUTH 11KV EX NAKURU,NAKURU DEPOT,Nakuru,300638618,1419,nyamakoroto house
36.18025889,0.271144444,05394 - Arthur Wanyoike,05394 - Arthur Wanyoike,5394,CAMP  EX LANET,LANET SUBSTATION,Nakuru,300611599,1085,st gabriel mission sec
36.44192917,0.706243611,05395 - G.K.Prisons_Naivasha,05395 - G.K.Prisons_Naivasha,5395,KIHOTO NAIVASHA TOWN 11KV,KIHOTO SUBSTATION,Nakuru,300609128,3006,GK prison
36.06045361,0.286018,05397 - C.K Patel,05397 - C.K Patel,5397,NAKURU TOWN 11KV EX NAKURU,NAKURU DEPOT,Nakuru,300610023,1029,NAKURU
36.33613944,0.681449722,05399 - Mathara Holdings,05399 - Mathara Holdings,5399,NORTH SHORE 11KV EX MARUL,MARULA,Nakuru,300638617,50,mathara herd farm
36.35191792,0.838388056,05400 - Sulmac Co Ltd,05400 - Sulmac Co Ltd,5400,NORTH LAKE SHORE 11KV EX,DCK,Nakuru,300607254,803,HOME GROWN M.V WORK SHOP
36.34253,0.828706667,05401 - Sulmac Snr Staff Hou,05401 - Sulmac Snr Staff Hou,5401,NORTH LAKE SHORE 11KV EX,DCK,Nakuru,300607255,32,HOME GROWN
36.31996861,0.814594167,05403 - Power Staff Housing,05403 - Power Staff Housing,5403,DCK NAROK 33KV EX SUSWA,NAIVASHA SUBSTATION,Nakuru,300607227,372,KEN GEN LAKESIDE ESTATE
36.06600528,0.2874125,05404 - Tom Mboya Road,05404 - Tom Mboya Road,5404,NAKURU TOWN 11KV EX NAKURU,NAKURU DEPOT,Nakuru,300610027,729,near bontana hotel
36.06665306,0.285094889,05405 - Kobil Stn._Nakuru,05405 - Kobil Stn._Nakuru,5405,NAKURU TOWN 11KV EX NAKURU,NAKURU DEPOT,Nakuru,300610030,869,ku plaza building
36.07357556,0.305263056,05406 - Pangani Pri. Sch_Nakur,05406 - Pangani Pri. Sch_Nakur,5406,RACE TRACK 11KV EX MWARIKI,NAKURU DEPOT,Nakuru,300610076,5871,racecourse
36.43249,0.715175,05410 - Moi Road,05410 - Moi Road,5410,KIHOTO NAIVASHA TOWN 11KV,KIHOTO SUBSTATION,Nakuru,300609121,1097,Entrance to Naivasha town bus
35.96597667,0.191737222,05414 - KABARAK HOME,05414 - KABARAK HOME,5414,UNIVERSITY FEEDER EX KABARAK,KABARAK 33/11 SUBSTATION,Nakuru,300664783,90,kabarak home
36.08457597,0.303010278,05415 - KALOLENI C,05415 - KALOLENI C,5415,GAME PARK 11KV EX MWARIKI,MWARIKI 33/11KV,Nakuru,300648613,2111,KALOLENI
36.14950778,0.293834167,05420 - Lanet Primary School,05420 - Lanet Primary School,5420,CAMP  EX LANET,LANET SUBSTATION,Nakuru,300611561,412,opposite lanet works medical
36.09569222,0.284674417,05423 - Hortage Housing Sect,05423 - Hortage Housing Sect,5423,SOUTH EX LANET,LANET SUBSTATION,Nakuru,300607400,1056,Mama Ngina Estate
35.72872028,0.248292778,05424 - B.T.KARANJA,05424 - B.T.KARANJA,5424,MOLO 11KV EX ELBURGON,ELBURGON,Nakuru,300610857,963,b.t. karanja
36.05756306,0.286412222,05425 - Flour Mills,05425 - Flour Mills,5425,MENENGAI 11KV EX NAKURU,NAKURU DEPOT,Nakuru,300609971,0,OPPOSITE MOMBASA MAIZE MILLERS
36.33264694,0.8227,05433 - Gold Smith (Sharima),05433 - Gold Smith (Sharima),5433,NORTH LAKE SHORE 11KV EX,DCK,Nakuru,300607261,50,agribio lakes
36.12580556,0.299580833,05436 - Baharini Wildlife,05436 - Baharini Wildlife,5436,SOUTH EX LANET,LANET SUBSTATION,Nakuru,300607390,490,ANGLICAN CHURCH {ST STEPHENS
36.43055333,0.764596667,05437 - Hortitec,05437 - Hortitec,5437,KIHOTO SOUTHLAKE 11KV,KIHOTO SUBSTATION,Nakuru,300608000,139,NEXT TO VAUGHAN
36.18260167,0.021558333,05440 - Mrs. Hodge,05440 - Mrs. Hodge,5440,NYAHURURU/MARALAL 33Kv L1,LANET SUBSTATION,Nakuru,300611240,0,SUBUKIA
35.75859889,0.281836944,05443 - D;G. MATU,05443 - D;G. MATU,5443,MOLO 11KV EX ELBURGON,ELBURGON,Nakuru,300668002,656,NEAR GLORIOUS CHURCH TURI
36.4271025,0.773795556,05446 - Karagita Center,05446 - Karagita Center,5446,KIHOTO SOUTHLAKE 11KV,KIHOTO SUBSTATION,Nakuru,300607992,73,FISHERIES DEPT KARACTA
36.36221,0.838654722,05448 - Local Tx_D.C.K S/S,05448 - Local Tx_D.C.K S/S,5448,SOUTH LAKE SHORE 11KV EX,DCK,Nakuru,300639086,0,DCK SUB STATION
36.08751167,0.298993611,05464 - A P Line,05464 - A P Line,5464,SOUTH EX LANET,LANET SUBSTATION,Nakuru,300610118,5414,next TO AP CAMP
36.08546131,0.281778611,05465 - State,05465 - State,5465,MILIMANI  11KV  EX  NAKURU,NAKURU DEPOT,Nakuru,300610230,248,near state house
36.08466447,0.271072778,05466 - Crater Climb,05466 - Crater Climb,5466,MILIMANI  11KV  EX  NAKURU,LANET SUBSTATION,Nakuru,300610220,458,milimani police patrol post
36.42675778,0.719357694,05467 - Pelican Farm,05467 - Pelican Farm,5467,KIHOTO NAIVASHA TOWN 11KV,KIHOTO SUBSTATION,Nakuru,300608127,0,HOME GROWN ESTATE
36.42310306,0.716549167,05470 - Pelican,05470 - Pelican,5470,KIHOTO NAIVASHA TOWN 11KV,KIHOTO SUBSTATION,Nakuru,300608128,116,HOME GROWN NVS TOWN
36.40960111,0.794300556,05471 - Kamuta Farm,05471 - Kamuta Farm,5471,SOUTH LAKE SHORE 11KV EX,DCK,Nakuru,300607980,14,kamuta
36.40601194,0.790036389,05472 - Kamuta Farm,05472 - Kamuta Farm,5472,SOUTH LAKE SHORE 11KV EX,DCK,Nakuru,300607981,16,KAMATA FARM
36.08069083,0.297333333,05479 - Police Lines_Bondeni,05479 - Police Lines_Bondeni,5479,GAME PARK 11KV EX MWARIKI,MWARIKI 33/11KV,Nakuru,300610121,1625,NAKURU
36.31931558,0.501870944,05481 - Gilgil Polytechnic,05481 - Gilgil Polytechnic,5481,GILGIL TOWN 11KV EX GILGI,GILGIL,Nakuru,300607795,2174,highway
35.74052083,0.245956667,05482 - BACLAYS BANK HSE,05482 - BACLAYS BANK HSE,5482,MOLO 11KV EX ELBURGON,ELBURGON,Nakuru,300610835,299,mt st marys girl's primary sc
36.13443614,0.104393056,05484 - Solai,05484 - Solai,5484,NYAHURURU/MARALAL 33Kv L1,LANET SUBSTATION,Nakuru,300611205,8,borehole
36.07938222,0.277844167,05486 - Elgeyo  Ave. Samia,05486 - Elgeyo  Ave. Samia,5486,MILIMANI  11KV  EX  NAKURU,LANET SUBSTATION,Nakuru,300648449,97,NAKURU
36.0721575,0.287051944,05488 - P.C. Office,05488 - P.C. Office,5488,SOUTH 11KV EX NAKURU,NAKURU DEPOT,Nakuru,300607428,623,p.c office
36.32425222,0.505491389,05489 - Gilgil Health Centre,05489 - Gilgil Health Centre,5489,GILGIL TOWN 11KV EX GILGI,GILGIL,Nakuru,300607797,698,Next to Gilgil Town ship scho
36.46157444,0.797797778,05491 - Local Tx_Suswa S/S,05491 - Local Tx_Suswa S/S,5491,KINANGOP FEEDER 33KV,NAIVASHA SUBSTATION,Nakuru,300639036,34,maimayu sub station
36.38091556,0.818528361,05492 - Kedong Ranch,05492 - Kedong Ranch,5492,SOUTH LAKE SHORE 11KV EX,DCK,Nakuru,300608130,110,KEDONG/LONGONOT FARM W/PUMP
36.39847056,0.856183889,05493 - Kedong Ranch,05493 - Kedong Ranch,5493,SOUTH LAKE SHORE 11KV EX,DCK,Nakuru,300608131,7,KENDONG RANCH
36.18205611,0.286716944,05496 - M Gichua Farm,05496 - M Gichua Farm,5496,CAMP  EX LANET,LANET SUBSTATION,Nakuru,300611584,112,gichua farm
36.18316194,0.293033611,05497 - Beef R House,05497 - Beef R House,5497,CAMP  EX LANET,LANET SUBSTATION,Nakuru,300611586,41,opposite st joseph high school
36.05974389,0.294669444,05500 - NEXT PIVOT,05500 - NEXT PIVOT,5500,SOUTH 11KV EX NAKURU,NAKURU DEPOT,Nakuru,300653499,339,STAREHE GUEST HSE
36.11197944,0.134248028,05505 - Menengai Estate,05505 - Menengai Estate,5505,NYAHURURU/MARALAL 33Kv L1,LANET SUBSTATION,Nakuru,300611196,50,MENENGAI ESTATE FARM
36.27070611,0.78388475,05509 - Adc_Ndabibi,05509 - Adc_Ndabibi,5509,NORTH LAKE SHORE 11KV EX,DCK,Nakuru,300607294,0,WILSON GACHANJA FARM
36.2725175,0.777265833,05510 - Adc_Ndabibi,05510 - Adc_Ndabibi,5510,NORTH LAKE SHORE 11KV EX,DCK,Nakuru,300607295,0,baharini
36.27927389,0.797785,05512 - Kinja Nurseries,05512 - Kinja Nurseries,5512,NORTH LAKE SHORE 11KV EX,DCK,Nakuru,300607290,134,KINJA FLAMINGO CORTAGES
36.29222417,0.803120833,05513 - Nderit Towers,05513 - Nderit Towers,5513,NORTH LAKE SHORE 11KV EX,DCK,Nakuru,300607291,3,nderit towers
35.73496289,0.220946667,05514 - Kibunja Centre,05514 - Kibunja Centre,5514,MOLO 11KV EX ELBURGON,ELBURGON,Nakuru,300610845,375,KIBUNJA CENTER
36.33884861,0.830158056,05516 - M. Thuku,05516 - M. Thuku,5516,NORTH LAKE SHORE 11KV EX,DCK,Nakuru,300607257,1400,KWA MUHIA
36.08897944,0.303156389,05517 - Sewage Old,05517 - Sewage Old,5517,SOUTH EX LANET,LANET SUBSTATION,Nakuru,300610117,0,NAKURU
36.06001806,0.288523056,05518 - Londra Factory,05518 - Londra Factory,5518,INTERCONNECTOR 1 EX LANET,LANET SUBSTATION,Nakuru,300610179,0,NAKURU
36.42752889,0.760968333,05519 - John Burch,05519 - John Burch,5519,KIHOTO SOUTHLAKE 11KV,KIHOTO SUBSTATION,Nakuru,300608001,81,Adjacent to Lake Naivasha
36.112305,0.283770028,05521 - RAJ. INVESTMENT,05521 - RAJ. INVESTMENT,5521,NORTH 11Kv EX LANET,LANET SUBSTATION,Nakuru,300650866,404,RAJ COURT
36.06904097,0.299435833,05523 - Free Hold Estate,05523 - Free Hold Estate,5523,RACE TRACK 11KV EX MWARIKI,NAKURU DEPOT,Nakuru,300610066,511,free hold estate
36.2923,0.860178611,05526 - Olkaria,05526 - Olkaria,5526,DCK NAROK 33KV EX SUSWA,NAIVASHA SUBSTATION,Nakuru,300607206,702,olkaria
36.31218833,0.897171667,05527 - Olkaria Geothermal,05527 - Olkaria Geothermal,5527,DCK NAROK 33KV EX SUSWA,NAIVASHA SUBSTATION,Nakuru,300607204,0,olkaria
36.29061056,0.821691389,05528 - Project B/H Geotherm,05528 - Project B/H Geotherm,5528,NORTH LAKE SHORE 11KV EX,DCK,Nakuru,300607275,0,GOETHERMAL WATER PUMP
36.11773933,0.210001667,05529 - B.T. Karanja,05529 - B.T. Karanja,5529,NYAHURURU/MARALAL 33Kv L1,LANET SUBSTATION,Nakuru,300611118,11,no name
36.13938167,0.139725278,05530 - J.M.&J.K.Investment,05530 - J.M.&J.K.Investment,5530,NYAHURURU/MARALAL 33Kv L1,LANET SUBSTATION,Nakuru,300611201,50,JM and JK INVESTMENT
36.06491556,0.275273333,05531 - Golf Club Road,05531 - Golf Club Road,5531,MILIMANI  11KV  EX  NAKURU,NAKURU DEPOT,Nakuru,300610205,120,maralal
36.07037306,0.286169167,05532 - Telephone House,05532 - Telephone House,5532,NAKURU TOWN 11KV EX NAKURU,NAKURU DEPOT,Nakuru,300610037,0,Orange Building
36.13130667,0.296168611,05533 - Embu Street,05533 - Embu Street,5533,NORTH 11Kv EX LANET,LANET SUBSTATION,Nakuru,300607329,166,LANET
36.43869028,0.726695833,05534 - MATUDURIA MARKET,05534 - MATUDURIA MARKET,5534,KIHOTO NAIVASHA TOWN 11KV,KIHOTO SUBSTATION,Nakuru,300609144,444,NEXT TO NAIVASHA POLICE STATI
36.42710944,0.76413,05538 - Three Point Ostrich,05538 - Three Point Ostrich,5538,KIHOTO SOUTHLAKE 11KV,KIHOTO SUBSTATION,Nakuru,300607999,0,NEAR VAUGHAN FARM
35.94172639,0.187128333,05543 - K.K. Bomet Sawmill,05543 - K.K. Bomet Sawmill,5543,UNIVERSITY FEEDER EX KABARAK,KABARAK 33/11 SUBSTATION,Nakuru,300638889,68,KK BOMET
36.18491161,0.299911667,05547 - Seed Unit,05547 - Seed Unit,5547,CAMP  EX LANET,LANET SUBSTATION,Nakuru,300611590,3000,Seed unit
36.11756042,0.149304444,05548 - Solai,05548 - Solai,5548,NYAHURURU/MARALAL 33Kv L1,LANET SUBSTATION,Nakuru,300611194,1631,kimary farmhouse
36.20877528,0.287264444,05554 - Beef Research,05554 - Beef Research,5554,CAMP  EX LANET,LANET SUBSTATION,Nakuru,300611582,0,BEEF R. STN...B/HOLE
36.35001997,0.498695833,05556 - Ndume Ya Kenya,05556 - Ndume Ya Kenya,5556,GILGIL TOWN 11KV EX GILGI,GILGIL,Nakuru,300607838,16,NDUME YA KENYA
36.07108889,0.278789722,05559 - General Hosp._Nakuru,05559 - General Hosp._Nakuru,5559,MILIMANI  11KV  EX  NAKURU,NAKURU DEPOT,Nakuru,300610206,250,next to show ground
36.15087911,0.297076667,05561 - Lanet Barrack W/Shop,05561 - Lanet Barrack W/Shop,5561,CAMP  EX LANET,LANET SUBSTATION,Nakuru,300611565,1744,kenya rifles barracks
36.0730025,0.276224722,05565 - General Hospital,05565 - General Hospital,5565,MILIMANI  11KV  EX  NAKURU,NAKURU DEPOT,Nakuru,300610208,410,NAKURU
36.11517611,0.286222778,05566 - NAGARIA ESTATE,05566 - NAGARIA ESTATE,5566,NORTH 11Kv EX LANET,LANET SUBSTATION,Nakuru,300650865,249,NAKURU
36.14247389,0.219075972,05567 - John K. Macheru,05567 - John K. Macheru,5567,MAILI SABA TOWNFEEDER EXBAHATI,BAHATI  33/11KV  S/STN,Nakuru,300611957,50,John k Macheru farm
36.27745,0.785430194,05568 - Adc_Ndabibi,05568 - Adc_Ndabibi,5568,NORTH LAKE SHORE 11KV EX,DCK,Nakuru,300638921,63,JUA KALI AREA ; ADC Ndabibi
36.14420806,0.272194444,05569 - F.N Kabiru,05569 - F.N Kabiru,5569,MAILI SABA TOWNFEEDER EXBAHATI,BAHATI  33/11KV  S/STN,Nakuru,300611681,164,F N KABIRU
35.76056722,0.288612222,05573 - Turi,05573 - Turi,5573,MOLO 11KV EX ELBURGON,ELBURGON,Nakuru,300610805,0,turi
36.12213444,0.222125278,05574 - Bahati,05574 - Bahati,5574,NYAHURURU/MARALAL 33Kv L1,LANET SUBSTATION,Nakuru,300611115,384,TISA MARKET
36.40924417,0.785460417,05575 - Sanctuary Farm,05575 - Sanctuary Farm,5575,SOUTH LAKE SHORE 11KV EX,DCK,Nakuru,300607983,56,sanctuary
36.2696375,0.808634722,05576 - Mundui Estate,05576 - Mundui Estate,5576,NORTH LAKE SHORE 11KV EX,DCK,Nakuru,300607288,67,MUNDUI ESTATE
36.18012972,0.299220556,05577 - Kenya Seed Units Hou,05577 - Kenya Seed Units Hou,5577,CAMP  EX LANET,LANET SUBSTATION,Nakuru,300611588,110,Kenya Seed Unit House
36.07508722,0.302427194,05579 - Pangani Estate_Nakuru,05579 - Pangani Estate_Nakuru,5579,GAME PARK 11KV EX MWARIKI,MWARIKI 33/11KV,Nakuru,300610113,1746,NAKURU
36.32020778,0.816338333,05581 - Lake View Est._Olkaria,05581 - Lake View Est._Olkaria,5581,DCK NAROK 33KV EX SUSWA,NAIVASHA SUBSTATION,Nakuru,300607226,348,OLKARIA GEOTHERMAL POWER STAT
36.31593361,0.821031389,05582 - Lake View Est._Olkaria,05582 - Lake View Est._Olkaria,5582,DCK NAROK 33KV EX SUSWA,NAIVASHA SUBSTATION,Nakuru,300607223,242,KENGEN STAFF HSES-SCH
35.96577528,0.163793889,5583 - 5583,5583 - 5583,5583,UNIVERSITY FEEDER EX KABARAK,KABARAK 33/11 SUBSTATION,Nakuru,300704659,170,KABARAK
36.18431142,0.302198972,05587 - A.D.C Staff Houses,05587 - A.D.C Staff Houses,5587,CAMP  EX LANET,LANET SUBSTATION,Nakuru,300611592,135,ADC Staff Houses
36.18293806,0.3073375,05588 - A.D.C  Manager House,05588 - A.D.C  Manager House,5588,CAMP  EX LANET,LANET SUBSTATION,Nakuru,300611593,8,adc farm manager residence
36.30737889,0.892463889,05593 - Geothermal  Power Ho,05593 - Geothermal  Power Ho,5593,DCK NAROK 33KV EX SUSWA,NAIVASHA SUBSTATION,Nakuru,300607203,0,olkaria 1
36.36348694,0.833357111,05598 - Y M C A,05598 - Y M C A,5598,SOUTH LAKE SHORE 11KV EX,DCK,Nakuru,300607948,100,ymca camp
35.70198608,0.217544806,05600 - KANGAHU FARM,05600 - KANGAHU FARM,5600,MOLO 11KV EX ELBURGON,ELBURGON,Nakuru,300610944,57,kanguhu /highlands farm
35.70664639,0.218336,05601 - KARUME INVESTMENTS,05601 - KARUME INVESTMENTS,5601,MOLO 11KV EX ELBURGON,ELBURGON,Nakuru,300610943,62,highlands molo
36.42969528,0.71133,05602 - Industrial Area,05602 - Industrial Area,5602,KIHOTO NAIVASHA TOWN 11KV,KIHOTO SUBSTATION,Nakuru,300609107,289,naivasha town industrial area
35.74198389,0.250133361,05604 - St. Mary'S Pri.School,05604 - St. Mary'S Pri.School,5604,MOLO 11KV EX ELBURGON,ELBURGON,Nakuru,300610827,823,Near Mary Mount girls
36.15391389,0.209846667,5605 - E.N. KIMANI,5605 - E.N. KIMANI,5605,MAILI SABA TOWNFEEDER EXBAHATI,BAHATI  33/11KV  S/STN,Nakuru,300652417,124,E:N KIMATHI
35.69687806,0.201378139,05606 - BARAKA AGRICULTURAL C,05606 - BARAKA AGRICULTURAL C,5606,MOLO 11KV EX ELBURGON,ELBURGON,Nakuru,300610939,279,BARAKA AGRICULTURALCOLLEGE
35.75694583,0.284722444,05611 - Turi,05611 - Turi,5611,MOLO 11KV EX ELBURGON,ELBURGON,Nakuru,300610807,652,KASARANI TURI
35.96321389,0.202069639,05612 - Kabarak Police Station,05612 - Kabarak Police Station,5612,UNIVERSITY FEEDER EX KABARAK,KABARAK 33/11 SUBSTATION,Nakuru,300608836,97,KABARKA
36.10874,0.247806667,05619 - Amolak Singh Quarry,05619 - Amolak Singh Quarry,5619,NORTH 11Kv EX LANET,LANET SUBSTATION,Nakuru,300612446,200,NAKURU
36.29905639,0.80001225,05624 - Rj. Barton,05624 - Rj. Barton,5624,NORTH LAKE SHORE 11KV EX,DCK,Nakuru,300607292,0,BURTON FARM
36.06640361,0.289054722,05625 - Ondinga Oginga Road,05625 - Ondinga Oginga Road,5625,NAKURU TOWN 11KV EX NAKURU,NAKURU DEPOT,Nakuru,300610026,649,NAKURU
36.09918583,0.285098639,05627 - Free Area,05627 - Free Area,5627,SOUTH EX LANET,LANET SUBSTATION,Nakuru,300607398,0,POLICE DOG SECT. -NAKURU
36.45073731,0.734536611,05628 - M.O Water Developmen,05628 - M.O Water Developmen,5628,KIHOTO NAIVASHA TOWN 11KV,KIHOTO SUBSTATION,Nakuru,300609163,271,water district officet
36.43247194,0.711800833,05630 - Industrial Area,05630 - Industrial Area,5630,KIHOTO NAIVASHA TOWN 11KV,KIHOTO SUBSTATION,Nakuru,300609108,1402,liwa buildings
36.07529833,0.28677,05631 - Bondeni Road_Nakuru,05631 - Bondeni Road_Nakuru,5631,SOUTH 11KV EX NAKURU,NAKURU DEPOT,Nakuru,300607424,9270,near legacy  hotel  nakuru
36.11684503,0.286246944,05632 - Nakuru Ind Maisonnet,05632 - Nakuru Ind Maisonnet,5632,NORTH 11Kv EX LANET,LANET SUBSTATION,Nakuru,300607353,177,28 flats estate
36.14590528,0.345283611,05635 - Mwariki Farm,05635 - Mwariki Farm,5635,GILGIL /MARULA EX LANET,LANET SUBSTATION,Nakuru,300607768,254,Gorofa /Kwa Kihuria
36.10889556,0.249419167,05636 - NICHOLAS QUARRY,05636 - NICHOLAS QUARRY,5636,NORTH 11Kv EX LANET,LANET SUBSTATION,Nakuru,300612445,740,nicholas quarry
36.18543144,0.291040556,05641 - ..Seed Unit,05641 - ..Seed Unit,5641,CAMP  EX LANET,LANET SUBSTATION,Nakuru,300611585,53,opposite  beef research insti
36.17945778,0.307213889,05642 - Ndimu Farm,05642 - Ndimu Farm,5642,CAMP  EX LANET,LANET SUBSTATION,Nakuru,300611594,104,ndimu farm
36.39751944,0.806106944,05643 - Home Grown_Flamingo,05643 - Home Grown_Flamingo,5643,SOUTH LAKE SHORE 11KV EX,DCK,Nakuru,300607968,372,finlays farm
36.31050833,0.891327222,05648 - Olkaria Geothermal,05648 - Olkaria Geothermal,5648,DCK NAROK 33KV EX SUSWA,NAIVASHA SUBSTATION,Nakuru,300638412,0,OLKARIA
36.32353194,0.818368139,05651 - Kamere House,05651 - Kamere House,5651,NORTH LAKE SHORE 11KV EX,DCK,Nakuru,300607270,29,LAKE VIEW ESTATE
35.76865244,0.292288611,05652 - Waireri Farm,05652 - Waireri Farm,5652,MOLO 11KV EX ELBURGON,ELBURGON,Nakuru,300610799,58,OFF NJORO MOLO ROAD
36.06353889,0.28074,05654 - Showground.,05654 - Showground.,5654,MILIMANI  11KV  EX  NAKURU,NAKURU DEPOT,Nakuru,300610202,471,Show Ground
36.34866139,0.505948611,05661 - NO NAME,05661 - NO NAME,5661,GILGIL TOWN 11KV EX GILGI,GILGIL,Nakuru,300607851,93,GILGIL BARRACKS (OFFICERS MES
35.91955611,0.201690194,05676 - MANGU,05676 - MANGU,5676,UNIVERSITY FEEDER EX KABARAK,KABARAK 33/11 SUBSTATION,Nakuru,300664038,8,Gicheha farm
36.32745222,0.817292333,05679 - Kamere Estate,05679 - Kamere Estate,5679,NORTH LAKE SHORE 11KV EX,DCK,Nakuru,300607264,7,kamere
36.04594389,0.277435833,05680 - Wino Industries,05680 - Wino Industries,5680,MENENGAI 11KV EX NAKURU,NAKURU DEPOT,Nakuru,300609991,237,outside wino industries
35.93592358,0.166792806,05681 - Hon Muhoho & Gichuru,05681 - Hon Muhoho & Gichuru,5681,UNIVERSITY FEEDER EX KABARAK,KABARAK 33/11 SUBSTATION,Nakuru,300608965,0,MENENGAI
36.28072556,0.714013056,05682 - G.K & Bros House,05682 - G.K & Bros House,5682,NORTH SHORE 11KV EX MARUL,MARULA,Nakuru,300608862,61,oluswa farm
36.43133861,0.729901111,05683 - Kihoto Farm,05683 - Kihoto Farm,5683,KIHOTO SOUTHLAKE 11KV,KIHOTO SUBSTATION,Nakuru,300638402,2607,NAIVASHA
36.11679678,0.289444444,05687 - coil produce,05687 - coil produce,5687,NORTH 11Kv EX LANET,LANET SUBSTATION,Nakuru,300650741,65,AROUND TOTAL PETROL STATION _
36.45125378,0.742047778,05688 - Kenya Wildlife &Fish,05688 - Kenya Wildlife &Fish,5688,KIHOTO NAIVASHA TOWN 11KV,KIHOTO SUBSTATION,Nakuru,300609161,150,AT KWS INSTITUTE
36.44836028,0.74476,05689 - Kenya Wildlife & Fis,05689 - Kenya Wildlife & Fis,5689,KIHOTO NAIVASHA TOWN 11KV,KIHOTO SUBSTATION,Nakuru,300609162,347,AT KWS
36.4092225,0.779566667,05692 - Crescent Island,05692 - Crescent Island,5692,SOUTH LAKE SHORE 11KV EX,DCK,Nakuru,300607985,8,crescent island
36.40856778,0.776204167,05693 - Crescent Island,05693 - Crescent Island,5693,SOUTH LAKE SHORE 11KV EX,DCK,Nakuru,300607984,69,cresent  island
36.13421897,0.263381389,05694 - Mcn B/Hole_Kabatini,05694 - Mcn B/Hole_Kabatini,5694,MAILI SABA TOWNFEEDER EXBAHATI,BAHATI  33/11KV  S/STN,Nakuru,300611943,395,mcn borehole
36.42317167,0.764433056,05695 - Ol Njorowa Ltd (Mbug,05695 - Ol Njorowa Ltd (Mbug,5695,KIHOTO SOUTHLAKE 11KV,KIHOTO SUBSTATION,Nakuru,300607997,50,MBEGU FARM PUMP
36.09773111,0.285966194,05696 - N.H.C_Nakuru,05696 - N.H.C_Nakuru,5696,SOUTH EX LANET,LANET SUBSTATION,Nakuru,300607399,435,NHC HOUSING-NAKURU
36.35987611,0.504511389,05699 - Adbrico Limited,05699 - Adbrico Limited,5699,GILGIL TOWN 11KV EX GILGI,GILGIL,Nakuru,300607839,62,coolson residence
36.32879944,0.823505833,05700 - Kamere Bore Hole,05700 - Kamere Bore Hole,5700,NORTH LAKE SHORE 11KV EX,DCK,Nakuru,300607262,50,PLANTATION PLANTS-KENYA LTD
35.74551417,0.263493333,05701 - F.W Kariuki,05701 - F.W Kariuki,5701,MOLO 11KV EX ELBURGON,ELBURGON,Nakuru,300610822,493,OFF EVERBEST ROAD
36.08969389,0.290800833,05703 - Salvation Army Hoste,05703 - Salvation Army Hoste,5703,SOUTH EX LANET,LANET SUBSTATION,Nakuru,300607406,149,NAKURU
36.10647278,0.257161111,05704 - Mchanganyiko Estate,05704 - Mchanganyiko Estate,5704,NORTH 11Kv EX LANET,LANET SUBSTATION,Nakuru,300612333,1604,nearby posho mill
36.10193067,0.280699722,05709 - Hyrax Estate_Lanet,05709 - Hyrax Estate_Lanet,5709,NORTH 11Kv EX LANET,LANET SUBSTATION,Nakuru,300607360,1112,NAKURU
35.69397056,0.211938889,05716 - KANGAHU FARM,05716 - KANGAHU FARM,5716,MOLO 11KV EX ELBURGON,ELBURGON,Nakuru,300610941,105,KANGAHU FARM
36.13083194,0.297550556,05717 - Madaraka Primary Sch,05717 - Madaraka Primary Sch,5717,SOUTH EX LANET,LANET SUBSTATION,Nakuru,300607389,4992,MADARAKA PR. SCH- LANET
36.14396806,0.2123225,05718 - Samuel Mwarali,05718 - Samuel Mwarali,5718,MAILI SABA TOWNFEEDER EXBAHATI,BAHATI  33/11KV  S/STN,Nakuru,300611959,91,ngecha nakuru
36.12123639,0.219740278,05719 - D. Kifuku & K. Iregi,05719 - D. Kifuku & K. Iregi,5719,NYAHURURU/MARALAL 33Kv L1,LANET SUBSTATION,Nakuru,300611116,118,SITA WAKULIMA CENTER
36.36430389,0.825513333,05720 - Mwai Thogo,05720 - Mwai Thogo,5720,SOUTH LAKE SHORE 11KV EX,DCK,Nakuru,300607950,0,SIMBER FARM -SHER
36.06101861,0.290272778,05722 - Bedi Investments,05722 - Bedi Investments,5722,INTERCONNECTOR 1 EX LANET,LANET SUBSTATION,Nakuru,300610178,627,Bedi fabrics
36.31251,0.885753056,05724 - Olkaria Geothermal,05724 - Olkaria Geothermal,5724,DCK NAROK 33KV EX SUSWA,NAIVASHA SUBSTATION,Nakuru,300666614,0,OLKARIA
36.11555778,0.265338333,05726 - NAKURU WORKERS ESTATE,05726 - NAKURU WORKERS ESTATE,5726,MAILI SABA TOWNFEEDER EXBAHATI,BAHATI  33/11KV  S/STN,Nakuru,300612286,2544,WORKERS -NAKURU
35.85105728,0.20118475,05728 - Local Tx_Rongai S/S,05728 - Local Tx_Rongai S/S,5728,RONGAI TOWN 11KV EX RONGA,RONGAI,Nakuru,300639227,65,RONGAI
36.28372869,0.731642222,05729 - G.K Bro'S N.S.B,05729 - G.K Bro'S N.S.B,5729,NORTH SHORE 11KV EX MARUL,MARULA,Nakuru,300608866,0,g.k
36.13064694,0.297609167,05731 - Caleb Kiarie,05731 - Caleb Kiarie,5731,SOUTH EX LANET,LANET SUBSTATION,Nakuru,300607388,2955,LANET
35.75010786,0.290425278,05732 - Mburu Gachagua,05732 - Mburu Gachagua,5732,MOLO 11KV EX ELBURGON,ELBURGON,Nakuru,300610806,72,GACHAKUA FARM
36.16730461,0.047775833,05733 - Subukia Valley Waate,05733 - Subukia Valley Waate,5733,KIRENGERO 11KV EX SUBUKIA,SUBUKIA,Nakuru,300610376,167,KABAZI
36.34563722,0.493530278,05734 - Major Houses,05734 - Major Houses,5734,GILGIL TOWN 11KV EX GILGI,GILGIL,Nakuru,300607868,67,along gilgil baracks
36.34626111,0.501436944,05735 - Captains Houses,05735 - Captains Houses,5735,GILGIL TOWN 11KV EX GILGI,GILGIL,Nakuru,300607850,6,inside gilgil baracks
36.34292722,0.499244722,05736 - Corporals Flats,05736 - Corporals Flats,5736,GILGIL TOWN 11KV EX GILGI,GILGIL,Nakuru,300607848,140,corporal flats
35.96432194,0.188939722,05738 - Kabarak Air Strip,05738 - Kabarak Air Strip,5738,UNIVERSITY FEEDER EX KABARAK,KABARAK 33/11 SUBSTATION,Nakuru,300608833,0,kabarak home
36.15877722,0.292363889,05739 - Senior Nco'S Married,05739 - Senior Nco'S Married,5739,CAMP  EX LANET,LANET SUBSTATION,Nakuru,300611569,230,ARMY T/COLLEGE M/QUARTERS
36.07063444,0.301680806,05740 - Ngera Estate,05740 - Ngera Estate,5740,RACE TRACK 11KV EX MWARIKI,NAKURU DEPOT,Nakuru,300610071,579,NAKURU
36.14862472,0.276588889,05741 - Wairimu  Wamae,05741 - Wairimu  Wamae,5741,MAILI SABA TOWNFEEDER EXBAHATI,BAHATI  33/11KV  S/STN,Nakuru,300611678,11,bethel girls high school
36.26911325,0.856755278,05743 - Geothermal Ol Karia,05743 - Geothermal Ol Karia,5743,DCK NAROK 33KV EX SUSWA,NAIVASHA SUBSTATION,Nakuru,300607210,500,OSERIAN FARM
36.42202583,0.76893,05744 - Naivex Limited S.S.,05744 - Naivex Limited S.S.,5744,KIHOTO SOUTHLAKE 11KV,KIHOTO SUBSTATION,Nakuru,300607993,206,orosorua
36.15205153,0.288315,05748 - Telkom Exchange_Lanet,05748 - Telkom Exchange_Lanet,5748,CAMP  EX LANET,LANET SUBSTATION,Nakuru,300611566,305,Telkom
35.71097056,0.212327222,05749 - C. K. GACHUHI,05749 - C. K. GACHUHI,5749,MOLO 11KV EX ELBURGON,ELBURGON,Nakuru,300610942,14,c.k gachuhi
36.42610611,0.735912972,05750 - C.F Githii And S.N M,05750 - C.F Githii And S.N M,5750,KIHOTO SOUTHLAKE 11KV,KIHOTO SUBSTATION,Nakuru,300608086,0,KIHOTO FARM
36.44318194,0.7239225,05751 - C.S Ole Kariasak,05751 - C.S Ole Kariasak,5751,KIHOTO NAIVASHA TOWN 11KV,KIHOTO SUBSTATION,Nakuru,300609145,1266,MAELA HSE NAIVASHA TOWN
36.12549444,0.2650525,05753 - Wambura Matete,05753 - Wambura Matete,5753,MAILI SABA TOWNFEEDER EXBAHATI,BAHATI  33/11KV  S/STN,Nakuru,300612285,432,wambura matete
36.10556361,0.272269444,05754 - K.I.T.I Staff Houses,05754 - K.I.T.I Staff Houses,5754,NORTH 11Kv EX LANET,LANET SUBSTATION,Nakuru,300612543,1123,NAKURU
35.73063028,0.245396667,05757 - MOLO TWN,05757 - MOLO TWN,5757,MOLO 11KV EX ELBURGON,ELBURGON,Nakuru,300648901,1100,Near POSTA Molo
36.44694472,0.721283056,05758 - ADC POTATO PROJECT,05758 - ADC POTATO PROJECT,5758,KIHOTO NAIVASHA TOWN 11KV,KIHOTO SUBSTATION,Nakuru,300609152,2383,Near assistance chief office
36.30885722,0.893543333,05759 - Olkaria Stand By Sup,05759 - Olkaria Stand By Sup,5759,DCK NAROK 33KV EX SUSWA,NAIVASHA SUBSTATION,Nakuru,300607202,23,olkaria 1
36.43035361,0.713433611,05760 - Telkom Exch._Naivasha,05760 - Telkom Exch._Naivasha,5760,KIHOTO NAIVASHA TOWN 11KV,KIHOTO SUBSTATION,Nakuru,300609106,4433,NEXT TO COOPERATIVE BANK
36.14049472,0.3138825,05761 - Stem Hotel Lanet,05761 - Stem Hotel Lanet,5761,GILGIL /MARULA EX LANET,LANET SUBSTATION,Nakuru,300607758,911,stem hotel
36.30398611,0.889629444,05762 - Watchman'S Gate Olka,05762 - Watchman'S Gate Olka,5762,DCK NAROK 33KV EX SUSWA,NAIVASHA SUBSTATION,Nakuru,300607199,0,OLKARIA 1 POWER STN
36.4290025,0.750381556,05763 - Aberdare Kangogo,05763 - Aberdare Kangogo,5763,KIHOTO SOUTHLAKE 11KV,KIHOTO SUBSTATION,Nakuru,300608005,61,aberdare   kangogo
36.10753,0.285321583,05764 - PINE BREEZE HOSPITAL,05764 - PINE BREEZE HOSPITAL,5764,NORTH 11Kv EX LANET,LANET SUBSTATION,Nakuru,300607354,669,NAKURU
36.06482222,0.300489389,05766 - Langalanga/Freehold,05766 - Langalanga/Freehold,5766,RACE TRACK 11KV EX MWARIKI,NAKURU DEPOT,Nakuru,300610092,1417,KIHARA PLAZA
36.42918528,0.713892778,05767 - ASPHALT,05767 - ASPHALT,5767,KIHOTO NAIVASHA TOWN 11KV,KIHOTO SUBSTATION,Nakuru,300608126,11,Near Naivasha Sport Club (NSC
36.1754075,0.070645,05769 - Put Sarajevo Workshop,05769 - Put Sarajevo Workshop,5769,KIRENGERO 11KV EX SUBUKIA,SUBUKIA,Nakuru,300610372,107,KABAZI
35.90386194,0.152440917,05770 - MACHARIA KIMANI,05770 - MACHARIA KIMANI,5770,UNIVERSITY FEEDER EX KABARAK,KABARAK 33/11 SUBSTATION,Nakuru,300608971,28,KIRANGARI FARM
35.9225875,0.152835833,05773 - Rift Valley Hatcheri,05773 - Rift Valley Hatcheri,5773,UNIVERSITY FEEDER EX KABARAK,KABARAK 33/11 SUBSTATION,Nakuru,300608966,219,off Kabarak road menengai sch
35.75158431,0.272485833,05774 - Crown Foods Ltd,05774 - Crown Foods Ltd,5774,RONGAI OLENGURUONE33K EX SOILO,NAKURU WEST (SOILO)  SUBSTATION,Nakuru,300646871,714,in crown foods
36.193725,0.2833385,05775 - Seed Unit Project,05775 - Seed Unit Project,5775,CAMP  EX LANET,LANET SUBSTATION,Nakuru,300611581,50,seed unit
35.85974583,0.173753889,05776 - Rongai Town,05776 - Rongai Town,5776,RONGAI TOWN 11KV EX RONGA,RONGAI,Nakuru,300608678,292,opposite rongai health center
36.11080556,0.120101111,05777 - Nyahururu Solai,05777 - Nyahururu Solai,5777,NYAHURURU/MARALAL 33Kv L1,LANET SUBSTATION,Nakuru,300611197,18,FLORA OLA
35.72251472,0.239825833,05780 - T-OFF TO GREEN GARDEN,05780 - T-OFF TO GREEN GARDEN,5780,MOLO 11KV EX ELBURGON,ELBURGON,Nakuru,300610860,249,molo township t-off to green
36.13292222,0.278050833,05784 - SYSTEM AT STN 17538 5,05784 - SYSTEM AT STN 17538 5,5784,NORTH 11Kv EX LANET,LANET SUBSTATION,Nakuru,300648545,790,TWO IN ONE AREA NAKURU
36.29894583,0.818721139,05785 - Oserian Water Pump,05785 - Oserian Water Pump,5785,DCK NAROK 33KV EX SUSWA,NAIVASHA SUBSTATION,Nakuru,300607221,700,oserian
36.4383925,0.704396389,05788 - Naivasha Slaughter H,05788 - Naivasha Slaughter H,5788,KIHOTO NAIVASHA TOWN 11KV,KIHOTO SUBSTATION,Nakuru,300609133,11,NAIVASHA SLAUGHTER HOUSE
36.28048194,0.743036111,05792 - Roost Ltd,05792 - Roost Ltd,5792,NORTH LAKE SHORE 11KV EX,DCK,Nakuru,300608870,202,KORONGO FARM
36.16610889,0.289200833,05796 - Moi Girls Academy,05796 - Moi Girls Academy,5796,CAMP  EX LANET,LANET SUBSTATION,Nakuru,300611572,22,moi girls academy
35.966697,0.203426111,05800 - Menengai Post Office,05800 - Menengai Post Office,5800,UNIVERSITY FEEDER EX KABARAK,KABARAK 33/11 SUBSTATION,Nakuru,300639313,103,POSTA OLORONGAI
36.08877611,0.289568333,05806 - Mcn Misonge Est.,05806 - Mcn Misonge Est.,5806,SOUTH EX LANET,LANET SUBSTATION,Nakuru,300607407,1130,NAKURU
36.36513111,0.578783611,05807 - Toll Station_Gilgil,05807 - Toll Station_Gilgil,5807,GILGIL /MARULA EX LANET,LANET SUBSTATION,Nakuru,300607779,108,gil gil weighing brige
36.10499889,0.270180833,05809 - Kiti Office,05809 - Kiti Office,5809,NORTH 11Kv EX LANET,LANET SUBSTATION,Nakuru,300612544,218,NAKURU
36.12913917,0.26498,05810 - Joseph Waweru,05810 - Joseph Waweru,5810,MAILI SABA TOWNFEEDER EXBAHATI,BAHATI  33/11KV  S/STN,Nakuru,300612284,525,SAW MILL
36.04318083,0.278857222,05811 - Temp. Konoike Const.,05811 - Temp. Konoike Const.,5811,MENENGAI 11KV EX NAKURU,NAKURU DEPOT,Nakuru,300609989,0,silo grain workshop
36.09158556,0.289909444,05814 - Natco W/Shop,05814 - Natco W/Shop,5814,SOUTH EX LANET,LANET SUBSTATION,Nakuru,300607405,1049,NAKURU
36.13204639,0.421104722,05819 - Lake Nakuru Lodge,05819 - Lake Nakuru Lodge,5819,GILGIL /MARULA EX LANET,LANET SUBSTATION,Nakuru,300607754,100,lake nakuru lodge
36.06112389,0.290862778,05822 - Bedi Investment,05822 - Bedi Investment,5822,INTERCONNECTOR 1 EX LANET,LANET SUBSTATION,Nakuru,300610177,500,Bedi fabrics
36.1739175,0.275778056,05823 - Riruta Centre_Lanet,05823 - Riruta Centre_Lanet,5823,CAMP  EX LANET,LANET SUBSTATION,Nakuru,300611597,1528,ACK Church
35.77467778,0.2751475,05827 - DR KIRUBI FARM,05827 - DR KIRUBI FARM,5827,MOLO 11KV EX ELBURGON,ELBURGON,Nakuru,300668000,73,MTONI VILLAGE
36.17875722,0.066382222,05828 - M.W Njoroge,05828 - M.W Njoroge,5828,KIRENGERO 11KV EX SUBUKIA,SUBUKIA,Nakuru,300610370,70,MICHAELS SHAMBA
36.07833639,0.271183889,05829 - Maragoli Ave.,05829 - Maragoli Ave.,5829,MILIMANI  11KV  EX  NAKURU,LANET SUBSTATION,Nakuru,300610219,80,NAKURU
36.16884958,0.289563056,05831 - Moi Girls Academy,05831 - Moi Girls Academy,5831,CAMP  EX LANET,LANET SUBSTATION,Nakuru,300611571,172,moi girls academy
36.05714611,0.300053694,05832 - Ronda Estate,05832 - Ronda Estate,5832,SOUTH 11KV EX NAKURU,NAKURU DEPOT,Nakuru,300639316,1568,weavers
36.11984222,0.287865556,05835 - Flamingo Bottlers,05835 - Flamingo Bottlers,5835,NORTH 11Kv EX LANET,LANET SUBSTATION,Nakuru,300607344,500,valley bakery
36.11878386,0.290753056,05836 - Bakery Nakuru Ind. B,05836 - Bakery Nakuru Ind. B,5836,NORTH 11Kv EX LANET,LANET SUBSTATION,Nakuru,300607346,3,valley bakery-tosti
36.07470139,0.282624444,05840 - Mutati Transporters,05840 - Mutati Transporters,5840,SOUTH 11KV EX NAKURU,NAKURU DEPOT,Nakuru,300607436,2377,cigma business center
36.06328444,0.308235,05844 - M.C.N Sewage,05844 - M.C.N Sewage,5844,RACE TRACK 11KV EX MWARIKI,MWARIKI 33/11KV,Nakuru,300610098,2825,Ponda Mali
36.06360778,0.314978889,05845 - Mwariki Estate,05845 - Mwariki Estate,5845,GAME PARK 11KV EX MWARIKI,MWARIKI 33/11KV,Nakuru,300610134,2566,NAKURU
36.11403111,0.2416275,05848 - Heshima Center,05848 - Heshima Center,5848,NORTH 11Kv EX LANET,LANET SUBSTATION,Nakuru,300612540,1436,NAKURU
35.98533892,0.252125528,05851 - P.N Ngugi_Kirobon Farm,05851 - P.N Ngugi_Kirobon Farm,5851,RONGAI OLENGURUONE33K EX SOILO,NAKURU WEST (SOILO)  SUBSTATION,Nakuru,300610952,270,P.N NGUGI FIRM
36.47410167,0.720321944,05852 - KINAMBA MARKET,05852 - KINAMBA MARKET,5852,GILGIL INTERCONN 33KV EX SUSWA,NAIVASHA SUBSTATION,Nakuru,300609337,2010,KINAMBA MKT.
36.4784625,0.687960278,05853 - KARATI MARKET,05853 - KARATI MARKET,5853,GILGIL INTERCONN 33KV EX SUSWA,NAIVASHA SUBSTATION,Nakuru,300609347,1024,oppOSITE mama kariuki posho m
36.48986472,0.651147917,05854 - NATIONAL YOUTH SERVIC,05854 - NATIONAL YOUTH SERVIC,5854,GILGIL INTERCONN 33KV EX SUSWA,NAIVASHA SUBSTATION,Nakuru,300642712,574,JUST OFF THE NYS COMPOUND _10
36.50126931,0.673360556,05855 - Surveyor And Others,05855 - Surveyor And Others,5855,GILGIL INTERCONN 33KV EX SUSWA,NAIVASHA SUBSTATION,Nakuru,300639331,151,SHOTORA CENTER
36.51125167,0.700033667,05856 - KARIUKI CHOTARA HOUSE,05856 - KARIUKI CHOTARA HOUSE,5856,GILGIL INTERCONN 33KV EX SUSWA,NAIVASHA SUBSTATION,Nakuru,300639323,67,north kangima farm
36.51158306,0.708101111,05857 - MUNUNGA HIGH SCHOOL,05857 - MUNUNGA HIGH SCHOOL,5857,GILGIL INTERCONN 33KV EX SUSWA,NAIVASHA SUBSTATION,Nakuru,300639324,82,near mununga high school
36.50518389,0.685058028,05858 - Mununga Shops,05858 - Mununga Shops,5858,GILGIL INTERCONN 33KV EX SUSWA,NAIVASHA SUBSTATION,Nakuru,300639325,65,MUNUNGA
36.16813925,0.044651667,05859 - D. KARIUKI,05859 - D. KARIUKI,5859,KIRENGERO 11KV EX SUBUKIA,SUBUKIA,Nakuru,300610377,101,KABAZI
36.36656389,0.622942222,05860 - Local Tx_Marula S/S,05860 - Local Tx_Marula S/S,5860,GILGIL /MARULA EX LANET,LANET SUBSTATION,Nakuru,300608380,3042,morindet kpc
36.305375,0.712128333,05861 - EBURU H/LIFT PUMB,05861 - EBURU H/LIFT PUMB,5861,GILGIL /MARULA EX LANET,LANET SUBSTATION,Nakuru,300608615,83,ruby farm
36.12773667,0.098472222,05862 - Solai Secondary Scho,05862 - Solai Secondary Scho,5862,NYAHURURU/MARALAL 33Kv L1,LANET SUBSTATION,Nakuru,300611208,339,within solai secondary school
36.30757583,0.720018611,05863 - Eburu Geothermal/Keng,05863 - Eburu Geothermal/Keng,5863,NORTH SHORE 11KV EX MARUL,MARULA,Nakuru,300608386,167,no name
36.26180778,0.636058722,05864 - Eburru Reservoir Tan,05864 - Eburru Reservoir Tan,5864,GILGIL /MARULA EX LANET,LANET SUBSTATION,Nakuru,300608612,145,ebburu resavour
36.13311139,0.2467475,05867 - T.W Njoroge,05867 - T.W Njoroge,5867,NYAHURURU/MARALAL 33Kv L1,LANET SUBSTATION,Nakuru,300611111,45,NAKURU
36.16727136,0.057656389,05868 - Kenda Farm,05868 - Kenda Farm,5868,KIRENGERO 11KV EX SUBUKIA,SUBUKIA,Nakuru,300610374,150,kenda
36.08286667,0.298036111,05870 - Kivumbini Estate,05870 - Kivumbini Estate,5870,GAME PARK 11KV EX MWARIKI,MWARIKI 33/11KV,Nakuru,300610120,3863,NEAR THE GATE OF AIC CHURCH
35.86693564,0.175839167,05871 - E.E. Sisters Of Mary,05871 - E.E. Sisters Of Mary,5871,RONGAI TOWN 11KV EX RONGA,RONGAI,Nakuru,300608664,221,sacred heart boys rongai
35.93272417,0.165288889,05873 - Gitomwa Farm,05873 - Gitomwa Farm,5873,UNIVERSITY FEEDER EX KABARAK,KABARAK 33/11 SUBSTATION,Nakuru,300608964,69,GITOMWA FLOWER FARM
36.43792028,0.764173056,05875 - Naivex  Ltd.,05875 - Naivex  Ltd.,5875,KIHOTO SOUTHLAKE 11KV,KIHOTO SUBSTATION,Nakuru,300608004,1381,villas
36.31988139,0.813875,05876 - Well No.703 Geotherm,05876 - Well No.703 Geotherm,5876,DCK NAROK 33KV EX SUSWA,NAIVASHA SUBSTATION,Nakuru,300607228,461,KEN GEN GUEST HSE
36.29405139,0.710643333,05877 - H.Z Camp Site,05877 - H.Z Camp Site,5877,GILGIL /MARULA EX LANET,LANET SUBSTATION,Nakuru,300608616,3266,H.Z CAMP SITE
36.44749056,0.728822222,05878 - Lake View Est_Naivasha,05878 - Lake View Est_Naivasha,5878,KIHOTO NAIVASHA TOWN 11KV,KIHOTO SUBSTATION,Nakuru,300609159,2985,OPPOSITE JOAN ELOI SHOP
36.14676639,0.276230556,05897 - KIAMUNYEKI ESTATE,05897 - KIAMUNYEKI ESTATE,5897,MAILI SABA TOWNFEEDER EXBAHATI,BAHATI  33/11KV  S/STN,Nakuru,300611679,195,kwa wanjiku farm
35.94663639,0.202302694,05898 - Salome Njeri AND Othe,05898 - Salome Njeri AND Othe,5898,UNIVERSITY FEEDER EX KABARAK,KABARAK 33/11 SUBSTATION,Nakuru,300663640,147,MANGU
35.81721081,0.300763111,05899 - L. M. Gitau,05899 - L. M. Gitau,5899,MOLO 11KV EX ELBURGON,ELBURGON,Nakuru,300610775,0,ELBURGON
36.42174833,0.775609722,05911 - Kijabe Ltd,05911 - Kijabe Ltd,5911,KIHOTO SOUTHLAKE 11KV,KIHOTO SUBSTATION,Nakuru,300607988,64,NCP
36.43381233,0.755097778,05912 - Boffar Farm,05912 - Boffar Farm,5912,KIHOTO SOUTHLAKE 11KV,KIHOTO SUBSTATION,Nakuru,300608058,162,boffar farm
36.35413528,0.830179722,05914 - Sher Agencies,05914 - Sher Agencies,5914,NORTH LAKE SHORE 11KV EX,DCK,Nakuru,300607243,210,main farm
35.95856556,0.1533375,05926 - R.V Hatcheries,05926 - R.V Hatcheries,5926,UNIVERSITY FEEDER EX KABARAK,KABARAK 33/11 SUBSTATION,Nakuru,300608855,646,Rafiki centre
36.14797861,0.255043333,05927 - P.K Ngugi,05927 - P.K Ngugi,5927,MAILI SABA TOWNFEEDER EXBAHATI,BAHATI  33/11KV  S/STN,Nakuru,300611944,231,mentor high school
36.19006889,0.257487222,05928 - D.M Kanyai,05928 - D.M Kanyai,5928,CAMP  EX LANET,LANET SUBSTATION,Nakuru,300611602,146,dm kanyai
36.17194667,0.029450278,05929 - H. N. Karanja,05929 - H. N. Karanja,5929,NYAHURURU/MARALAL 33Kv L1,LANET SUBSTATION,Nakuru,300611238,88,SUBUKIA
36.28837056,0.7106975,05931 - SHALIMAR PUMP HOUSE,05931 - SHALIMAR PUMP HOUSE,5931,NORTH SHORE 11KV EX MARUL,MARULA,Nakuru,300605852,440,shalimar farm
36.29809944,0.722715278,05932 - Sharimar Farm,05932 - Sharimar Farm,5932,NORTH SHORE 11KV EX MARUL,MARULA,Nakuru,300608675,350,sharimar farm
36.06781469,0.309801389,05934 - Race Track Estate,05934 - Race Track Estate,5934,RACE TRACK 11KV EX MWARIKI,MWARIKI 33/11KV,Nakuru,300610095,1303,NAKURU
36.07196972,0.309626389,05935 - Race Track Estate,05935 - Race Track Estate,5935,RACE TRACK 11KV EX MWARIKI,NAKURU DEPOT,Nakuru,300610080,1693,friends church pangani
36.07032389,0.3061325,05936 - Race Track Estate,05936 - Race Track Estate,5936,RACE TRACK 11KV EX MWARIKI,NAKURU DEPOT,Nakuru,300610075,1532,behind langa langa primary
35.74789917,0.276235278,05937 - K Mbugua,05937 - K Mbugua,5937,MOLO 11KV EX ELBURGON,ELBURGON,Nakuru,300610818,353,michatha ya juu
36.33129917,0.5041375,05939 - Gilgil Industies Ltd,05939 - Gilgil Industies Ltd,5939,GILGIL TOWN 11KV EX GILGI,GILGIL,Nakuru,300607805,630,GILGIL TREATMENT INDUSTRIES
35.85358806,0.151110778,05941 - H.K Karemeri,05941 - H.K Karemeri,5941,RONGAI TOWN 11KV EX RONGA,RONGAI,Nakuru,300608690,117,H.K KAREMERI
36.15048008,0.28444775,05942 - D. Kamau,05942 - D. Kamau,5942,CAMP  EX LANET,LANET SUBSTATION,Nakuru,300611567,678,Calvary medical centre
35.99842556,0.233447722,05944 - Macharia,05944 - Macharia,5944,UNIVERSITY FEEDER EX KABARAK,KABARAK 33/11 SUBSTATION,Nakuru,300610313,138,kilobon
35.99678917,0.236602778,05945 - N. Kamau,05945 - N. Kamau,5945,UNIVERSITY FEEDER EX KABARAK,KABARAK 33/11 SUBSTATION,Nakuru,300610312,91,MENENGAI
35.98854611,0.227539444,05946 - Njoroge,05946 - Njoroge,5946,UNIVERSITY FEEDER EX KABARAK,KABARAK 33/11 SUBSTATION,Nakuru,300638470,81,KIAMUNYI
35.98970333,0.223648056,05947 - Maranga_Kiamunyi,05947 - Maranga_Kiamunyi,5947,UNIVERSITY FEEDER EX KABARAK,KABARAK 33/11 SUBSTATION,Nakuru,300610319,105,MENENGAI
36.29910194,0.819845,05962 - Ol Karia Highlift W/,05962 - Ol Karia Highlift W/,5962,DCK NAROK 33KV EX SUSWA,NAIVASHA SUBSTATION,Nakuru,300607219,0,KEN GEN HIGH RISE PUMP STN.
36.29901833,0.817142,05963 - Olkaria Water Intake,05963 - Olkaria Water Intake,5963,DCK NAROK 33KV EX SUSWA,NAIVASHA SUBSTATION,Nakuru,300607220,27,lake
35.97818139,0.222206667,05964 - Mangu,05964 - Mangu,5964,UNIVERSITY FEEDER EX KABARAK,KABARAK 33/11 SUBSTATION,Nakuru,300610325,85,MENENGAI
35.98097528,0.218123278,05965 - Mangu,05965 - Mangu,5965,UNIVERSITY FEEDER EX KABARAK,KABARAK 33/11 SUBSTATION,Nakuru,300610326,150,mangu
35.97482056,0.2201475,05966 - Mangu Area,05966 - Mangu Area,5966,UNIVERSITY FEEDER EX KABARAK,KABARAK 33/11 SUBSTATION,Nakuru,300610323,130,mangu area
35.97848556,0.214696389,05967 - Mangu Farm,05967 - Mangu Farm,5967,UNIVERSITY FEEDER EX KABARAK,KABARAK 33/11 SUBSTATION,Nakuru,300610337,136,MENENGAI
35.97219389,0.217581056,05968 - Mangu Farm,05968 - Mangu Farm,5968,UNIVERSITY FEEDER EX KABARAK,KABARAK 33/11 SUBSTATION,Nakuru,300610321,260,MENENGAI
35.96879994,0.215835278,05969 - Mangu Farm,05969 - Mangu Farm,5969,UNIVERSITY FEEDER EX KABARAK,KABARAK 33/11 SUBSTATION,Nakuru,300610327,144,MENENGAI
35.97258194,0.210066944,05970 - Mangu Farm,05970 - Mangu Farm,5970,UNIVERSITY FEEDER EX KABARAK,KABARAK 33/11 SUBSTATION,Nakuru,300610328,148,MENENGAI
35.9653725,0.214318333,05971 - Mangu Farm,05971 - Mangu Farm,5971,UNIVERSITY FEEDER EX KABARAK,KABARAK 33/11 SUBSTATION,Nakuru,300610329,112,mangu farm
35.96962111,0.2081875,05972 - Mangu,05972 - Mangu,5972,UNIVERSITY FEEDER EX KABARAK,KABARAK 33/11 SUBSTATION,Nakuru,300610330,164,MENENGAI
35.96298889,0.210970833,05973 - Mangu Farm,05973 - Mangu Farm,5973,UNIVERSITY FEEDER EX KABARAK,KABARAK 33/11 SUBSTATION,Nakuru,300610331,283,MENENGAI
36.4747025,0.712753889,05974 - Nyondia Market,05974 - Nyondia Market,5974,GILGIL INTERCONN 33KV EX SUSWA,NAIVASHA SUBSTATION,Nakuru,300609342,248,KINAMBA AREA
36.34387639,0.491297222,05980 - Kenyatta Barracks,05980 - Kenyatta Barracks,5980,GILGIL TOWN 11KV EX GILGI,GILGIL,Nakuru,300607846,1329,NYAHURURU ROAD
36.16766628,0.280316389,05981 - D.K Karanja,05981 - D.K Karanja,5981,CAMP  EX LANET,LANET SUBSTATION,Nakuru,300611577,1375,LANET MAIN ROAD
35.95953917,0.210448611,05989 - Mangu Scheme,05989 - Mangu Scheme,5989,UNIVERSITY FEEDER EX KABARAK,KABARAK 33/11 SUBSTATION,Nakuru,300610332,340,MENENGAI
35.94444778,0.192503611,05990 - NyamuANDOthers,05990 - NyamuANDOthers,5990,UNIVERSITY FEEDER EX KABARAK,KABARAK 33/11 SUBSTATION,Nakuru,300638482,189,MANGU
35.94725028,0.194872222,05991 - NYAMU AND OTHERS,05991 - NYAMU AND OTHERS,5991,UNIVERSITY FEEDER EX KABARAK,KABARAK 33/11 SUBSTATION,Nakuru,300638485,211,MANGU
35.95020331,0.196935833,05992 - Salome AND Others,05992 - Salome AND Others,5992,UNIVERSITY FEEDER EX KABARAK,KABARAK 33/11 SUBSTATION,Nakuru,300638483,145,MANGU
35.95324917,0.199015556,05993 - Salome Njeri AND Other,05993 - Salome Njeri AND Other,5993,UNIVERSITY FEEDER EX KABARAK,KABARAK 33/11 SUBSTATION,Nakuru,300638487,169,MANGU
35.95621389,0.201122139,05994 - SALOME NJERI AND OTHE,05994 - SALOME NJERI AND OTHE,5994,UNIVERSITY FEEDER EX KABARAK,KABARAK 33/11 SUBSTATION,Nakuru,300638486,109,LOWER MANGU
35.96065917,0.201419333,05995 - SALOME NJERI AND OTHE,05995 - SALOME NJERI AND OTHE,5995,UNIVERSITY FEEDER EX KABARAK,KABARAK 33/11 SUBSTATION,Nakuru,300638488,279,LOWER MANGU
35.93759917,0.195893889,05996 - Salome Njeri AND Other,05996 - Salome Njeri AND Other,5996,UNIVERSITY FEEDER EX KABARAK,KABARAK 33/11 SUBSTATION,Nakuru,300638489,109,LOWER MANGU
35.94059694,0.197967778,05997 - Salome Njeri AND Other,05997 - Salome Njeri AND Other,5997,UNIVERSITY FEEDER EX KABARAK,KABARAK 33/11 SUBSTATION,Nakuru,300650148,87,salome farm
35.93356792,0.205569444,05999 - Lower Mangu,05999 - Lower Mangu,5999,UNIVERSITY FEEDER EX KABARAK,KABARAK 33/11 SUBSTATION,Nakuru,300638492,228,MANGU
35.93698361,0.205368611,6000 - Mangu Farm,6000 - Mangu Farm,6000,UNIVERSITY FEEDER EX KABARAK,KABARAK 33/11 SUBSTATION,Nakuru,300663634,180,mangu farm
36.58254111,0.980028889,13537 - MAI MAHIU DISPENSARY,13537 - MAI MAHIU DISPENSARY,13537,TOWN 11KV EX MAI MAHIU,MAI MAHIU 66/11 SUB STATION,Nakuru,300004463,726,MAIMAHIU MARTHY HARDWARE
36.58629861,0.9825375,13538 - MAI MAHIU TOWNSHIP,13538 - MAI MAHIU TOWNSHIP,13538,TOWN 11KV EX MAI MAHIU,MAI MAHIU 66/11 SUB STATION,Nakuru,300004459,2696,mai mahiu town
36.59204778,0.987971944,13539 - MAIMAHIU HOSPITAL,13539 - MAIMAHIU HOSPITAL,13539,TOWN 11KV EX MAI MAHIU,MAI MAHIU 66/11 SUB STATION,Nakuru,300004453,599,NEAR MAI MAHIU SS
36.58387292,0.977935,16035 - MAI MAHIU DISPENSARY,16035 - MAI MAHIU DISPENSARY,16035,TOWN 11KV EX MAI MAHIU,MAI MAHIU 66/11 SUB STATION,Nakuru,300634219,1265,MAI MAHIU HEALTH CENTER
36.58076611,0.989402222,16399 - KAMAKIA MAI MAHIU,16399 - KAMAKIA MAI MAHIU,16399,TOWN 11KV EX MAI MAHIU,MAI MAHIU 66/11 SUB STATION,Nakuru,300634489,663,King'ori Estate
36.58044278,0.986114444,16400 - CANAAN,16400 - CANAAN,16400,TOWN 11KV EX MAI MAHIU,MAI MAHIU 66/11 SUB STATION,Nakuru,300634468,323,MAI MAHIU
36.58654639,0.983280278,16868 - MAI MAHIU TOWN,16868 - MAI MAHIU TOWN,16868,TOWN 11KV EX MAI MAHIU,MAI MAHIU 66/11 SUB STATION,Nakuru,300609428,4213,mai mahiu
35.94010583,0.206970556,17001 - Mangu Farm,17001 - Mangu Farm,17001,UNIVERSITY FEEDER EX KABARAK,KABARAK 33/11 SUBSTATION,Nakuru,300639162,140,MANGU
35.94353861,0.209034722,17002 - Mangu Farm,17002 - Mangu Farm,17002,UNIVERSITY FEEDER EX KABARAK,KABARAK 33/11 SUBSTATION,Nakuru,300639163,185,MANGU
35.86717828,0.150785583,17003 - P.K.Lagat,17003 - P.K.Lagat,17003,RONGAI TOWN 11KV EX RONGA,RONGAI,Nakuru,300631636,85,B.P FLORA
35.85884778,0.157810278,17010 - Arasa Farm,17010 - Arasa Farm,17010,RONGAI TOWN 11KV EX RONGA,RONGAI,Nakuru,300608688,95,ARASA FLOWERS
36.26614167,0.858393056,17011 - 302 Olkaria Reservoi,17011 - 302 Olkaria Reservoi,17011,DCK NAROK 33KV EX SUSWA,NAIVASHA SUBSTATION,Nakuru,300607211,246,OSERIANI
36.27240167,0.647812778,17013 - K.P.C_Eburu Camp,17013 - K.P.C_Eburu Camp,17013,GILGIL /MARULA EX LANET,LANET SUBSTATION,Nakuru,300608613,30,outside eburu  primary
36.43895917,0.715929167,17014 - S&S ESTATE NAIVASHA,17014 - S&S ESTATE NAIVASHA,17014,KIHOTO NAIVASHA TOWN 11KV,KIHOTO SUBSTATION,Nakuru,300609123,2014,NRB/NKR HIGHWAY
36.4339925,0.741493889,17018 - Fisheries Wildlife T,17018 - Fisheries Wildlife T,17018,KIHOTO SOUTHLAKE 11KV,KIHOTO SUBSTATION,Nakuru,300608085,37,Hippo Camp Site
35.94680694,0.210741111,17019 - Mangu Farm,17019 - Mangu Farm,17019,UNIVERSITY FEEDER EX KABARAK,KABARAK 33/11 SUBSTATION,Nakuru,300639160,167,MANGU
35.94999583,0.212676944,17020 - Mangu Farm,17020 - Mangu Farm,17020,UNIVERSITY FEEDER EX KABARAK,KABARAK 33/11 SUBSTATION,Nakuru,300639123,124,MANGU
35.95320917,0.206040556,17021 - Mangu Farm,17021 - Mangu Farm,17021,UNIVERSITY FEEDER EX KABARAK,KABARAK 33/11 SUBSTATION,Nakuru,300639122,161,next to mabati gate
35.95571806,0.209370833,17022 - Mangu Farm,17022 - Mangu Farm,17022,UNIVERSITY FEEDER EX KABARAK,KABARAK 33/11 SUBSTATION,Nakuru,300610333,175,MENENGAI
36.29888972,0.819565833,17023 - Ol Karia  L.Naivasha,17023 - Ol Karia  L.Naivasha,17023,DCK NAROK 33KV EX SUSWA,NAIVASHA SUBSTATION,Nakuru,300607218,0,OSERIAN FARM
35.95270683,0.220466944,17028 - Mangu Farm,17028 - Mangu Farm,17028,UNIVERSITY FEEDER EX KABARAK,KABARAK 33/11 SUBSTATION,Nakuru,300610336,13,MENENGAI
35.94909917,0.218751,17029 - Menengai Primary Sch,17029 - Menengai Primary Sch,17029,UNIVERSITY FEEDER EX KABARAK,KABARAK 33/11 SUBSTATION,Nakuru,300610335,14,MENENGAI
35.98802556,0.236784722,17030 - Kilobon Farm,17030 - Kilobon Farm,17030,UNIVERSITY FEEDER EX KABARAK,KABARAK 33/11 SUBSTATION,Nakuru,300610314,139,KIROBON
35.98195972,0.248073611,17031 - Peter Rotich,17031 - Peter Rotich,17031,UNIVERSITY FEEDER EX KABARAK,KABARAK 33/11 SUBSTATION,Nakuru,300610316,212,KIROBON
35.98212306,0.240911944,17032 - Kilobon Farm,17032 - Kilobon Farm,17032,UNIVERSITY FEEDER EX KABARAK,KABARAK 33/11 SUBSTATION,Nakuru,300610317,141,KIROBON
35.98026556,0.235504667,17033 - Kilobon Farm,17033 - Kilobon Farm,17033,UNIVERSITY FEEDER EX KABARAK,KABARAK 33/11 SUBSTATION,Nakuru,300610318,93,kiloboin
35.97415278,0.247884167,17034 - Kilobon Farm,17034 - Kilobon Farm,17034,RONGAI OLENGURUONE33K EX SOILO,NAKURU WEST (SOILO)  SUBSTATION,Nakuru,300610953,0,NAKURU
35.97919139,0.249786944,17035 - Kabarak Farm,17035 - Kabarak Farm,17035,RONGAI OLENGURUONE33K EX SOILO,NAKURU WEST (SOILO)  SUBSTATION,Nakuru,300610954,544,verovia
35.98932028,0.243138056,17041 - Kilobon Farm (B),17041 - Kilobon Farm (B),17041,UNIVERSITY FEEDER EX KABARAK,KABARAK 33/11 SUBSTATION,Nakuru,300610315,72,OPPOSITE AIC CHURCH KAPTICH
35.99629639,0.247269167,17042 - KILOBON FARM B,17042 - KILOBON FARM B,17042,UNIVERSITY FEEDER EX KABARAK,KABARAK 33/11 SUBSTATION,Nakuru,300639141,70,OPPOSITE CORNER MBAYA
36.00024592,0.251874528,17043 - KILOBON FARM B,17043 - KILOBON FARM B,17043,UNIVERSITY FEEDER EX KABARAK,KABARAK 33/11 SUBSTATION,Nakuru,300663519,46,KILOBON
36.00066536,0.255524444,17044 - KILOBON FARM B,17044 - KILOBON FARM B,17044,UNIVERSITY FEEDER EX KABARAK,KABARAK 33/11 SUBSTATION,Nakuru,300663520,36,KILOBON
36.00500889,0.2596325,17045 - KIROBON FARM,17045 - KIROBON FARM,17045,UNIVERSITY FEEDER EX KABARAK,KABARAK 33/11 SUBSTATION,Nakuru,300639142,94,kiroboni
36.06671108,0.316548611,17062 - Konoike Sewage & Off,17062 - Konoike Sewage & Off,17062,GAME PARK 11KV EX MWARIKI,MWARIKI 33/11KV,Nakuru,300610155,268,NAKURU
36.01506139,0.084209917,17065 - BARINA ESTATE  WORK S,17065 - BARINA ESTATE  WORK S,17065,NYAHURURU/MARALAL 33Kv L1,LANET SUBSTATION,Nakuru,300649865,8,barina workshop
36.06185306,0.157486111,17066 - ARAHUKA,17066 - ARAHUKA,17066,NYAHURURU/MARALAL 33Kv L1,LANET SUBSTATION,Nakuru,300649884,114,KIRIMA AREA
36.01241389,0.092985833,17067 - Barina Dairy & House,17067 - Barina Dairy & House,17067,NYAHURURU/MARALAL 33Kv L1,LANET SUBSTATION,Nakuru,300611158,70,barina primary
35.79403028,0.295358611,17069 - Charon African Netwo,17069 - Charon African Netwo,17069,MOLO 11KV EX ELBURGON,ELBURGON,Nakuru,300610788,159,ELBURGON
35.9541625,0.216617222,17073 - Umoja Farm_Rongai,17073 - Umoja Farm_Rongai,17073,UNIVERSITY FEEDER EX KABARAK,KABARAK 33/11 SUBSTATION,Nakuru,300610334,139,MENENGAI
36.06539639,0.304040278,17075 - 1st Ronda Avenue,17075 - 1st Ronda Avenue,17075,RACE TRACK 11KV EX MWARIKI,NAKURU DEPOT,Nakuru,300610088,980,ronda
36.44041889,0.72139,17077 - Kabati,17077 - Kabati,17077,KIHOTO NAIVASHA TOWN 11KV,KIHOTO SUBSTATION,Nakuru,300609140,1696,milimani primary
36.29603583,0.833980806,17078 - Oserian Dev Company,17078 - Oserian Dev Company,17078,DCK NAROK 33KV EX SUSWA,NAIVASHA SUBSTATION,Nakuru,300607217,860,OSERIAN FARM
36.34549111,0.832781944,17079 - Sulmac Co Ltd,17079 - Sulmac Co Ltd,17079,NORTH LAKE SHORE 11KV EX,DCK,Nakuru,300607251,67,HEAD MEN CAMP-HOME GROWN
36.28330667,0.705520833,17080 - Shalmar Flowers,17080 - Shalmar Flowers,17080,NORTH SHORE 11KV EX MARUL,MARULA,Nakuru,300608868,8,shalimar farm
36.06996139,0.310525278,17085 - Race Track Pri. School,17085 - Race Track Pri. School,17085,RACE TRACK 11KV EX MWARIKI,NAKURU DEPOT,Nakuru,300610082,1553,next to josmil supermarket
36.11697486,0.149123889,17086 - Local Supply_Rve8,17086 - Local Supply_Rve8,17086,NYAHURURU/MARALAL 33Kv L1,LANET SUBSTATION,Nakuru,300611195,0,LOCAL WATER TREATMENT PLANT
36.09549694,0.1206925,17087 - Kanyotu Farm Solai,17087 - Kanyotu Farm Solai,17087,NYAHURURU/MARALAL 33Kv L1,LANET SUBSTATION,Nakuru,300611151,6,ALBANITA
36.09827667,0.103333333,17088 - President'S Farm,17088 - President'S Farm,17088,NYAHURURU/MARALAL 33Kv L1,LANET SUBSTATION,Nakuru,300611152,14,PRESIDENT'S FARM
36.09108472,0.103856111,17089 - Njehias Farm,17089 - Njehias Farm,17089,NYAHURURU/MARALAL 33Kv L1,LANET SUBSTATION,Nakuru,300611153,158,NJEHIA'S FARM
36.16865017,0.260768056,17092 - Tabuga Center,17092 - Tabuga Center,17092,CAMP  EX LANET,LANET SUBSTATION,Nakuru,300611674,283,Tabunga centre
36.109565,0.265998889,17093 - Engashura Near Kiti,17093 - Engashura Near Kiti,17093,MAILI SABA TOWNFEEDER EXBAHATI,BAHATI  33/11KV  S/STN,Nakuru,300612294,0,ENGASHURA-NAKURU
36.44082694,0.755106389,17098 - Acacia Lodge Ltd,17098 - Acacia Lodge Ltd,17098,GILGIL INTERCONN 33KV EX SUSWA,NAIVASHA SUBSTATION,Nakuru,300639106,0,SAF.COM BOASTER MIRERA.
36.12054556,0.123985833,17099 - Ngenda Ranching Co.,17099 - Ngenda Ranching Co.,17099,NYAHURURU/MARALAL 33Kv L1,LANET SUBSTATION,Nakuru,300611203,0,ngenda ranch
35.79565333,0.297485833,17101 - Muchemi Muita,17101 - Muchemi Muita,17101,MOLO 11KV EX ELBURGON,ELBURGON,Nakuru,300610786,768,opposite tallents childrens m
36.1208875,0.214926944,17102 - Robinson Mwangi & Ot,17102 - Robinson Mwangi & Ot,17102,NYAHURURU/MARALAL 33Kv L1,LANET SUBSTATION,Nakuru,300611117,253,Maili saba
36.06611611,0.3072625,17103 - Mwariki Estate,17103 - Mwariki Estate,17103,RACE TRACK 11KV EX MWARIKI,NAKURU DEPOT,Nakuru,300610097,1412,top ten petrol station
36.02315861,0.038673889,17106 - Majanimingi Sisal Est.,17106 - Majanimingi Sisal Est.,17106,NYAHURURU/MARALAL 33Kv L1,LANET SUBSTATION,Nakuru,300611162,665,majani mingi industry
36.48430614,0.642601389,17112 - KNIGHTNGALE KARATI,17112 - KNIGHTNGALE KARATI,17112,GILGIL INTERCONN 33KV EX SUSWA,NAIVASHA SUBSTATION,Nakuru,300609367,186,KIHOTO/ NIGHT NGALE FARM
35.69411444,0.361777222,17114 - Pro. George Saitoti,17114 - Pro. George Saitoti,17114,RONGAI OLENGURUONE33K EX SOILO,NAKURU WEST (SOILO)  SUBSTATION,Nakuru,300611046,108,GEORGe saitoti farM
36.40532333,0.818276417,17119 - Put Sarajevo,17119 - Put Sarajevo,17119,DCK NAROK 33KV EX SUSWA,NAIVASHA SUBSTATION,Nakuru,300607236,1049,KENDONG RANCH
36.39944472,0.807750278,17120 - Home Grown  Flowers,17120 - Home Grown  Flowers,17120,SOUTH LAKE SHORE 11KV EX,DCK,Nakuru,300607967,0,finlays  firm
36.11952389,0.225966667,17123 - Kiamaina Pri.School,17123 - Kiamaina Pri.School,17123,NORTH 11Kv EX LANET,LANET SUBSTATION,Nakuru,300612464,80,NAKURU
35.79412528,0.296087222,17126 - Mungai Sawmill,17126 - Mungai Sawmill,17126,MOLO 11KV EX ELBURGON,ELBURGON,Nakuru,300610787,150,chekimu woodmart ltd
36.41205389,0.800762417,17129 - P.N.Neylain,17129 - P.N.Neylain,17129,SOUTH LAKE SHORE 11KV EX,DCK,Nakuru,300607979,972,kijabe
36.47084028,0.726780278,17130 - KINAMBA MARKET,17130 - KINAMBA MARKET,17130,GILGIL INTERCONN 33KV EX SUSWA,NAIVASHA SUBSTATION,Nakuru,300609335,1183,KINAMBA MKT
36.34715278,0.840811111,17131 - Sulmac Co Ltd,17131 - Sulmac Co Ltd,17131,NORTH LAKE SHORE 11KV EX,DCK,Nakuru,300607246,270,finlays
36.38147194,0.511677778,17134 - Turasha Water Works,17134 - Turasha Water Works,17134,GILGIL TOWN 11KV EX GILGI,GILGIL,Nakuru,300607844,3139,konoike water works
35.99284278,0.255647222,17135 - KIROBON B;; FARM NJORO,17135 - KIROBON B;; FARM NJORO,17135,RONGAI OLENGURUONE33K EX SOILO,NAKURU WEST (SOILO)  SUBSTATION,Nakuru,300666828,147,fair view estate
36.02496583,0.050101944,17145 - Majani Mingi Sisal F,17145 - Majani Mingi Sisal F,17145,NYAHURURU/MARALAL 33Kv L1,LANET SUBSTATION,Nakuru,300611161,400,sisal farm
36.01998611,0.052786667,17149 - Majani Mingi W/Pump,17149 - Majani Mingi W/Pump,17149,NYAHURURU/MARALAL 33Kv L1,LANET SUBSTATION,Nakuru,300611160,0,MAJANI MINGI
36.05708389,0.107496667,17150 - NDUNGIRI MARKET,17150 - NDUNGIRI MARKET,17150,NYAHURURU/MARALAL 33Kv L1,LANET SUBSTATION,Nakuru,300649863,105,ndungiri primary
35.91956806,0.175280556,17152 - Bomet 1,17152 - Bomet 1,17152,UNIVERSITY FEEDER EX KABARAK,KABARAK 33/11 SUBSTATION,Nakuru,300638957,52,NAKURU RD/CENTRAL
35.91039083,0.172301111,17153 - Bomet 2 Umoja,17153 - Bomet 2 Umoja,17153,UNIVERSITY FEEDER EX KABARAK,KABARAK 33/11 SUBSTATION,Nakuru,300638955,73,km
36.36069806,0.830544722,17155 - KIMWATU FARM,17155 - KIMWATU FARM,17155,SOUTH LAKE SHORE 11KV EX,DCK,Nakuru,300607949,307,kimwatu
35.85745389,0.182976667,17156 - Gogar Farm,17156 - Gogar Farm,17156,RONGAI TOWN 11KV EX RONGA,RONGAI,Nakuru,300608661,290,s
35.91196,0.187836667,17157 - Umoja Farm_Rongai,17157 - Umoja Farm_Rongai,17157,UNIVERSITY FEEDER EX KABARAK,KABARAK 33/11 SUBSTATION,Nakuru,300638953,82,Leah Wanjiku
35.9023935,0.182581389,17158 - Major Koitaba,17158 - Major Koitaba,17158,UNIVERSITY FEEDER EX KABARAK,KABARAK 33/11 SUBSTATION,Nakuru,300638952,9,Koibata Farm
36.00261008,0.248132778,17173 - Dr.Ngotho AND Captain,17173 - Dr.Ngotho AND Captain,17173,UNIVERSITY FEEDER EX KABARAK,KABARAK 33/11 SUBSTATION,Nakuru,300638940,47,KILOBON
36.23342342,0.251531528,17174 - Dondori Centre,17174 - Dondori Centre,17174,CAMP  EX LANET,LANET SUBSTATION,Nakuru,300611633,1252,dondori town
36.322645,0.676564444,17176 - Green Park W/Pump,17176 - Green Park W/Pump,17176,GILGIL /MARULA EX LANET,LANET SUBSTATION,Nakuru,300608387,109,green park water pump
36.44603861,0.791997222,17178 - MIRERA SUSWA WATER PU,17178 - MIRERA SUSWA WATER PU,17178,KIHOTO SOUTHLAKE 11KV,KIHOTO SUBSTATION,Nakuru,300607943,2769,MIRERA NAIVASHA SOUTH LAKE
36.33378431,0.508333056,17181 - K.P.T Co,17181 - K.P.T Co,17181,GILGIL TOWN 11KV EX GILGI,GILGIL,Nakuru,300607807,1103,GTI
36.45484222,0.730795833,17185 - GK STONE PRISON CRASH,17185 - GK STONE PRISON CRASH,17185,KIHOTO NAIVASHA TOWN 11KV,KIHOTO SUBSTATION,Nakuru,300643023,50,gk prison crasher
35.76033528,0.29178,17189 - Tumaini Farm,17189 - Tumaini Farm,17189,MOLO 11KV EX ELBURGON,ELBURGON,Nakuru,300610802,142,TREE FARMERS
35.73565128,0.252951111,17190 - Local Supply_Rve,17190 - Local Supply_Rve,17190,RONGAI OLENGURUONE33K EX SOILO,NAKURU WEST (SOILO)  SUBSTATION,Nakuru,300610969,0,next to united hardwares
36.11702969,0.141879167,17191 - TEREMUKA ESTATE,17191 - TEREMUKA ESTATE,17191,NYAHURURU/MARALAL 33Kv L1,LANET SUBSTATION,Nakuru,300649882,12,TEREMEMKA ESTATE
36.19644694,0.267470611,17193 - H.K Karemeri,17193 - H.K Karemeri,17193,CAMP  EX LANET,LANET SUBSTATION,Nakuru,300611620,113,near tabuga girls school
36.08693694,0.286728889,17196 - Masai Avenue,17196 - Masai Avenue,17196,SOUTH EX LANET,LANET SUBSTATION,Nakuru,300607403,179,Masai Avenue
36.06086667,0.297383333,17199 - Kokoto Estate Kenland,17199 - Kokoto Estate Kenland,17199,SOUTH 11KV EX NAKURU,NAKURU DEPOT,Nakuru,300638926,1098,near
36.16791536,0.055003333,17200 - Solomon N.K Kioni,17200 - Solomon N.K Kioni,17200,KIRENGERO 11KV EX SUBUKIA,SUBUKIA,Nakuru,300610375,75,kenda farm
36.46599528,0.726483611,17201 - D. Karanja,17201 - D. Karanja,17201,GILGIL INTERCONN 33KV EX SUSWA,NAIVASHA SUBSTATION,Nakuru,300639766,258,VALLEY LILY ACADEMY
35.9236125,0.2037725,17202 - MANGU  FARM,17202 - MANGU  FARM,17202,UNIVERSITY FEEDER EX KABARAK,KABARAK 33/11 SUBSTATION,Nakuru,300664037,28,OFF GESHAHA FARM
36.08761111,0.132423611,17208 - Ol Banita Primary Sc,17208 - Ol Banita Primary Sc,17208,NYAHURURU/MARALAL 33Kv L1,LANET SUBSTATION,Nakuru,300611150,83,OLBANATA PRI SCHOOL
36.48494453,0.702917222,17211 - GOOD FAITH CHURCH,17211 - GOOD FAITH CHURCH,17211,GILGIL INTERCONN 33KV EX SUSWA,NAIVASHA SUBSTATION,Nakuru,300609345,688,longharn junior academy ECD
35.94159139,0.118025278,17214 - Kampi Ya Moto,17214 - Kampi Ya Moto,17214,UNIVERSITY FEEDER EX KABARAK,KABARAK 33/11 SUBSTATION,Nakuru,300608962,237,along morop  sec school
35.89086889,0.143827222,17215. - NJENGA AND SALAT OLO,17215. - NJENGA AND SALAT OLO,17215,UNIVERSITY FEEDER EX KABARAK,KABARAK 33/11 SUBSTATION,Nakuru,300608972,92,NJENGA FARM
36.05846528,0.296366111,17216 - SHABAB ESTATE,17216 - SHABAB ESTATE,17216,SOUTH 11KV EX NAKURU,NAKURU DEPOT,Nakuru,300639763,791,PEFA CHURCH
36.07319722,0.283390917,17225 - Gada Investment,17225 - Gada Investment,17225,SOUTH 11KV EX NAKURU,NAKURU DEPOT,Nakuru,300607440,889,gada investment
36.177355,0.060964167,17227 - Bishop Njehia AND Othe,17227 - Bishop Njehia AND Othe,17227,KIRENGERO 11KV EX SUBUKIA,SUBUKIA,Nakuru,300610369,205,maombi farm
36.18378497,0.052979167,17228 - Kieni B/H And Others,17228 - Kieni B/H And Others,17228,KIRENGERO 11KV EX SUBUKIA,SUBUKIA,Nakuru,300610368,71,kirengero
36.18132639,0.047060556,17229 - Wachira & Others,17229 - Wachira & Others,17229,KIRENGERO 11KV EX SUBUKIA,SUBUKIA,Nakuru,300610367,25,commissioner wachiras farm
36.18242417,0.039071111,17230 - Kieni Primary School,17230 - Kieni Primary School,17230,KIRENGERO 11KV EX SUBUKIA,SUBUKIA,Nakuru,300610366,245,kieni primary school
36.13983083,0.275221389,17232 - 15 Applicants Kiamun,17232 - 15 Applicants Kiamun,17232,NYAHURURU/MARALAL 33Kv L1,LANET SUBSTATION,Nakuru,300648544,297,kiamunyeki
35.94137528,0.130975278,17240 - kampi ya moto,17240 - kampi ya moto,17240,UNIVERSITY FEEDER EX KABARAK,KABARAK 33/11 SUBSTATION,Nakuru,300608963,336,KAMPI YA MOTO SCHEME
36.34877,0.837321389,17249 - Sulmac Co Ltd,17249 - Sulmac Co Ltd,17249,NORTH LAKE SHORE 11KV EX,DCK,Nakuru,300607248,464,finlays
36.45731333,0.737878056,17250 - Caltex Stn_Naivasha,17250 - Caltex Stn_Naivasha,17250,KIHOTO NAIVASHA TOWN 11KV,KIHOTO SUBSTATION,Nakuru,300609164,12,CALTEX PETROL STN.
36.11751528,0.233149167,17252 - Ann Kiarie Posho Mai,17252 - Ann Kiarie Posho Mai,17252,NORTH 11Kv EX LANET,LANET SUBSTATION,Nakuru,300612467,711,RESIDENTIAL APPX 100M OFF THE
35.71368444,0.2703925,17255 - J.K Ndegwa & S.K Nde,17255 - J.K Ndegwa & S.K Nde,17255,RONGAI OLENGURUONE33K EX SOILO,NAKURU WEST (SOILO)  SUBSTATION,Nakuru,300610979,38,in woodstock farm
35.71182667,0.233342861,17256 - SAMUEL K. S/MILL,17256 - SAMUEL K. S/MILL,17256,MOLO 11KV EX ELBURGON,ELBURGON,Nakuru,300610867,232,samwel saw mill
35.92231444,0.19365,17257 - Mbaru Gachacha AND  Ot,17257 - Mbaru Gachacha AND  Ot,17257,UNIVERSITY FEEDER EX KABARAK,KABARAK 33/11 SUBSTATION,Nakuru,300639703,53,RONGAI
35.79367306,0.264803889,17260 - D.K.Gakonyo,17260 - D.K.Gakonyo,17260,MOLO 11KV EX ELBURGON,ELBURGON,Nakuru,300610813,67,TURI
35.79092972,0.257284444,17261 - G.K. Njuguna,17261 - G.K. Njuguna,17261,MOLO 11KV EX ELBURGON,ELBURGON,Nakuru,300610814,6,Gk njuguna
36.29965778,0.720138889,17262 - Shalimar Farm,17262 - Shalimar Farm,17262,NORTH SHORE 11KV EX MARUL,MARULA,Nakuru,300608674,961,near marula farm
36.06996944,0.287369167,17272 - Ardhi House,17272 - Ardhi House,17272,NAKURU TOWN 11KV EX NAKURU,NAKURU DEPOT,Nakuru,300610036,149,Nakuru Law courts
36.07802389,0.150856611,17274 - J. Mark Moi,17274 - J. Mark Moi,17274,NYAHURURU/MARALAL 33Kv L1,LANET SUBSTATION,Nakuru,300611154,172,j.mark moi's ranch
36.30248058,0.83584975,17276 - Oserian Dev.Company,17276 - Oserian Dev.Company,17276,DCK NAROK 33KV EX SUSWA,NAIVASHA SUBSTATION,Nakuru,300607214,60,oserian
35.68533131,0.328257778,17277 - Muchorwi  T/Centre,17277 - Muchorwi  T/Centre,17277,RONGAI OLENGURUONE33K EX SOILO,NAKURU WEST (SOILO)  SUBSTATION,Nakuru,300610983,116,near muchorwe  center
35.94692806,0.143134444,17278 - Kampi Ya Moto Tradin,17278 - Kampi Ya Moto Tradin,17278,UNIVERSITY FEEDER EX KABARAK,KABARAK 33/11 SUBSTATION,Nakuru,300608947,304,bargasen center
36.197705,0.036553611,17279 - LOCAL TRANSFORMER SUB,17279 - LOCAL TRANSFORMER SUB,17279,NYAHURURU/MARALAL 33Kv L1,LANET SUBSTATION,Nakuru,300639691,9,subukia substation
36.17262667,0.295215556,17283 - Kagiri Water Project,17283 - Kagiri Water Project,17283,CAMP  EX LANET,LANET SUBSTATION,Nakuru,300611573,421,near kagiri water project
36.27557944,0.830846389,17284 - mR AND MS BELLGERI,17284 - mR AND MS BELLGERI,17284,NORTH LAKE SHORE 11KV EX,DCK,Nakuru,300607278,88,kiangazi
36.14158417,0.322171944,17286 - K.P.C Terminal_Nakuru,17286 - K.P.C Terminal_Nakuru,17286,GILGIL /MARULA EX LANET,LANET SUBSTATION,Nakuru,300607762,458,KPC
36.40106772,0.797557222,17290 - Osirua Ltd,17290 - Osirua Ltd,17290,SOUTH LAKE SHORE 11KV EX,DCK,Nakuru,300607976,9,lamorna
35.69311417,0.396278611,17291 - Kimalany/Muria T. `,17291 - Kimalany/Muria T. `,17291,RONGAI OLENGURUONE33K EX SOILO,NAKURU WEST (SOILO)  SUBSTATION,Nakuru,300611051,57,Keriget town
35.68848528,0.427491389,17292 - Keringet Trading Cente,17292 - Keringet Trading Cente,17292,RONGAI OLENGURUONE33K EX SOILO,NAKURU WEST (SOILO)  SUBSTATION,Nakuru,300611055,1822,seventh day adventist church
35.69161361,0.452998056,17293 - Sach,17293 - Sach,17293,RONGAI OLENGURUONE33K EX SOILO,NAKURU WEST (SOILO)  SUBSTATION,Nakuru,300611058,71,Keringet
35.69747361,0.505298333,17294 - Tendwet T. Centre,17294 - Tendwet T. Centre,17294,RONGAI OLENGURUONE33K EX SOILO,NAKURU WEST (SOILO)  SUBSTATION,Nakuru,300611062,2911,next to kapkiam general shop
35.7041825,0.5531075,17295 - SINENDET MARKET,17295 - SINENDET MARKET,17295,RONGAI OLENGURUONE33K EX SOILO,NAKURU WEST (SOILO)  SUBSTATION,Nakuru,300666050,190,infront of A.I.C LALANG AMOLO
35.70146889,0.563835833,17296 - Kiptenden Pri. School,17296 - Kiptenden Pri. School,17296,RONGAI OLENGURUONE33K EX SOILO,NAKURU WEST (SOILO)  SUBSTATION,Nakuru,300611070,152,kabartonjo
35.68161222,0.594284167,17297 - Oleng. Sec Sch,17297 - Oleng. Sec Sch,17297,RONGAI OLENGURUONE33K EX SOILO,NAKURU WEST (SOILO)  SUBSTATION,Nakuru,300611079,0,OLENGURUONE
35.84631444,0.217223028,17298 - Buffalo Hotel_Salgaa,17298 - Buffalo Hotel_Salgaa,17298,RONGAI OLENGURUONE33K EX SOILO,NAKURU WEST (SOILO)  SUBSTATION,Nakuru,300610958,49,kwa kimani
35.68584961,0.588506667,17299 - Olenguluone Town,17299 - Olenguluone Town,17299,RONGAI OLENGURUONE33K EX SOILO,NAKURU WEST (SOILO)  SUBSTATION,Nakuru,300611077,998,Olenguluone town
36.3478925,0.485863528,17300 - Dripland Farm Ltd,17300 - Dripland Farm Ltd,17300,GILGIL TOWN 11KV EX GILGI,GILGIL,Nakuru,300607847,95,BLOOMING AFRICA
35.90789528,0.167078944,17305 - Koitabai W/Group,17305 - Koitabai W/Group,17305,UNIVERSITY FEEDER EX KABARAK,KABARAK 33/11 SUBSTATION,Nakuru,300639852,195,near koitabai posho mill
36.34885694,0.829046111,17306 - Sulmac Water Intake,17306 - Sulmac Water Intake,17306,NORTH LAKE SHORE 11KV EX,DCK,Nakuru,300607244,400,lake
36.27333222,0.790905278,17309 - James Karugu Water P,17309 - James Karugu Water P,17309,NORTH LAKE SHORE 11KV EX,DCK,Nakuru,300607293,101,karungu
35.83740083,0.153431111,17312 - Rongai Borehole And,17312 - Rongai Borehole And,17312,RONGAI TOWN 11KV EX RONGA,RONGAI,Nakuru,300612486,146,RONGAI BORE-HOLE
35.84353528,0.130148889,17313 - Mawe Farm_Rongai,17313 - Mawe Farm_Rongai,17313,RONGAI TOWN 11KV EX RONGA,RONGAI,Nakuru,300608691,142,Riverside Academy
35.87122444,0.159816389,17316 - M.P.W.H_Rongai,17316 - M.P.W.H_Rongai,17316,RONGAI TOWN 11KV EX RONGA,RONGAI,Nakuru,300608687,92,MPWH_RONGAI
36.10707611,0.269339417,17318 - K.I.T.I_Nakuru,17318 - K.I.T.I_Nakuru,17318,MAILI SABA TOWNFEEDER EXBAHATI,BAHATI  33/11KV  S/STN,Nakuru,300612295,181,KITI
35.68261389,0.359822778,17321 - Belly Farm,17321 - Belly Farm,17321,RONGAI OLENGURUONE33K EX SOILO,NAKURU WEST (SOILO)  SUBSTATION,Nakuru,300611049,314,ISINYA ROSES
36.20481333,0.265917778,17322 - Isaac Murage AND Other,17322 - Isaac Murage AND Other,17322,CAMP  EX LANET,LANET SUBSTATION,Nakuru,300611624,238,near earnext boys secondary s
36.2983075,0.821962778,17323 - OSERIAN TELECOM,17323 - OSERIAN TELECOM,17323,NORTH LAKE SHORE 11KV EX,DCK,Nakuru,300642289,83,OSERIAN
36.34918472,0.8361975,17324 - Kptc Repeater,17324 - Kptc Repeater,17324,NORTH LAKE SHORE 11KV EX,DCK,Nakuru,300607247,50,finlay
36.0586275,0.321848333,17330 - Sewage Quarters,17330 - Sewage Quarters,17330,GAME PARK 11KV EX MWARIKI,MWARIKI 33/11KV,Nakuru,300610139,17742,NAKURU
36.30843583,0.668770056,17331 - P.  Rune & Others,17331 - P.  Rune & Others,17331,GILGIL /MARULA EX LANET,LANET SUBSTATION,Nakuru,300608626,145,green park
36.29999056,0.671576944,17332 - PROF.AGGREY SINDABI.,17332 - PROF.AGGREY SINDABI.,17332,GILGIL /MARULA EX LANET,LANET SUBSTATION,Nakuru,300639853,30,green park
36.12069,0.28374225,17337 - Buds & Bloom_Free Area,17337 - Buds & Bloom_Free Area,17337,NORTH 11Kv EX LANET,LANET SUBSTATION,Nakuru,300607345,1007,SPIN  KNIT NAKURU
36.30272142,0.663814167,17340 - Wobbe & Baronet,17340 - Wobbe & Baronet,17340,GILGIL /MARULA EX LANET,LANET SUBSTATION,Nakuru,300608625,103,greenpark estate
36.40566167,0.801353611,17342 - Kijabe Ltd,17342 - Kijabe Ltd,17342,SOUTH LAKE SHORE 11KV EX,DCK,Nakuru,300607975,120,kijambe ltd
35.85019303,0.2252125,17344 - Silbet Farm,17344 - Silbet Farm,17344,RONGAI OLENGURUONE33K EX SOILO,NAKURU WEST (SOILO)  SUBSTATION,Nakuru,300610957,132,st. maria gorretti
36.3135375,0.668628833,17345 - Air Strip,17345 - Air Strip,17345,GILGIL /MARULA EX LANET,LANET SUBSTATION,Nakuru,300608388,101,great rift valley lodge
36.30684778,0.663003611,17346 - Camp Bell Clause,17346 - Camp Bell Clause,17346,GILGIL /MARULA EX LANET,LANET SUBSTATION,Nakuru,300608624,55,great rift lodge
36.29811167,0.661214722,17347 - Green Park_Naivasha,17347 - Green Park_Naivasha,17347,GILGIL /MARULA EX LANET,LANET SUBSTATION,Nakuru,300608633,111,greenpark mugis paradise
36.29451778,0.664646111,17348 - Clive Harres Ltd,17348 - Clive Harres Ltd,17348,GILGIL /MARULA EX LANET,LANET SUBSTATION,Nakuru,300608632,14,green park estate
36.29101,0.666201667,17349 - Katch Bid,17349 - Katch Bid,17349,GILGIL /MARULA EX LANET,LANET SUBSTATION,Nakuru,300608630,29,GREEN  PARK
36.28554389,0.663109444,17350 - Katch Bid,17350 - Katch Bid,17350,GILGIL /MARULA EX LANET,LANET SUBSTATION,Nakuru,300639797,0,GREEN  PARK
35.6843655,0.338424167,17351 - Chepkwony D.C,17351 - Chepkwony D.C,17351,RONGAI OLENGURUONE33K EX SOILO,NAKURU WEST (SOILO)  SUBSTATION,Nakuru,300611045,43,chepkwony dc
35.71608444,0.2383,17352 - GATUYA S/MILL,17352 - GATUYA S/MILL,17352,MOLO 11KV EX ELBURGON,ELBURGON,Nakuru,300610862,299,GATUYA MAIZE MILL
36.16433472,0.28299,17356 - Nyonjoro Farm_Lanet,17356 - Nyonjoro Farm_Lanet,17356,CAMP  EX LANET,LANET SUBSTATION,Nakuru,300611576,786,LANET
35.68010222,0.542121944,17357 - Sinendetpr Sch & Oth,17357 - Sinendetpr Sch & Oth,17357,RONGAI OLENGURUONE33K EX SOILO,NAKURU WEST (SOILO)  SUBSTATION,Nakuru,300611064,21,near ogiek sotiki mixed day s
35.69185861,0.547891944,17358 - OLENGURUONE,17358 - OLENGURUONE,17358,RONGAI OLENGURUONE33K EX SOILO,NAKURU WEST (SOILO)  SUBSTATION,Nakuru,300663571,31,OLENGURUONE
35.63986472,0.4055725,17359 - Benjamin Kipkulei,17359 - Benjamin Kipkulei,17359,RONGAI OLENGURUONE33K EX SOILO,NAKURU WEST (SOILO)  SUBSTATION,Nakuru,300610986,3,in benjamin kipkuleis farm
36.28804667,0.716803,17360 - North Lake Nurseries,17360 - North Lake Nurseries,17360,GILGIL /MARULA EX LANET,LANET SUBSTATION,Nakuru,300608634,65,Bilashaka flowers Firm
35.75479528,0.297719167,17361 - Turi / Ndenderu Farm,17361 - Turi / Ndenderu Farm,17361,MOLO 11KV EX ELBURGON,ELBURGON,Nakuru,300610803,315,Ndenderu farm
35.75228008,0.30349,17362 - Turi/Ndenderu Farm,17362 - Turi/Ndenderu Farm,17362,MOLO 11KV EX ELBURGON,ELBURGON,Nakuru,300610804,161,ndenderu A village
35.63526511,0.3611425,17364 - Hosea Kiplagat,17364 - Hosea Kiplagat,17364,RONGAI OLENGURUONE33K EX SOILO,NAKURU WEST (SOILO)  SUBSTATION,Nakuru,300610989,9,no  name
