{"type": "FeatureCollection", "crs": {"type": "name", "properties": {"name": "EPSG:4326"}}, "features": [{"type": "Feature", "properties": {"name": "LANET SUBSTATION ( 132 / 11,33 KV)", "incomingfe": "132", "outgoingfe": "11,33", "county": "Nakuru", "internaltb": 100600063.0, "ownership": "KPLC", "physicallo": "NAKURU TOWN", "plotnumber": "8363/3", "manned": "YES", "pk": "73"}, "geometry": {"type": "Point", "coordinates": [36.13898492, -0.303353389]}}, {"type": "Feature", "properties": {"name": "NAIVASHA SUBSTATION ( 132 / 33 KV)", "incomingfe": "132", "outgoingfe": "33", "county": "Nakuru", "internaltb": 100600064.0, "ownership": "KPLC", "physicallo": "MAI MAHUI NAIVASHA", "plotnumber": "7286/1", "manned": "YES", "pk": "74"}, "geometry": {"type": "Point", "coordinates": [36.46175422, -0.798088417]}}, {"type": "Feature", "properties": {"name": "OLKARIA I ( 33 / 132 KV)", "incomingfe": "33", "outgoingfe": "132", "county": "Nakuru", "internaltb": 100600106.0, "ownership": "KENGEN", "physicallo": "OLKARIA I GEOTHERMAL STATION", "plotnumber": "8571/8", "manned": "YES", "pk": "75"}, "geometry": {"type": "Point", "coordinates": [36.30728889, -0.893788222]}}, {"type": "Feature", "properties": {"name": "OLKARIA II ( 132 / 220 KV)", "incomingfe": "132", "outgoingfe": "220", "county": "Nakuru", "internaltb": 100600108.0, "ownership": "KPLC", "physicallo": "OLKARIA", "plotnumber": "8547/5", "manned": "YES", "pk": "76"}, "geometry": {"type": "Point", "coordinates": [36.29832558, -0.865777694]}}, {"type": "Feature", "properties": {"name": "MAKUTANO 132/33 SUB STATION ( 132 / 33 KV)", "incomingfe": "132", "outgoingfe": "33", "county": "Nakuru", "internaltb": 100600170.0, "ownership": "KPLC", "physicallo": "MAKUTANO RAVINE LONDIANI JNC", "plotnumber": "7859/7", "manned": "NO", "pk": "77"}, "geometry": {"type": "Point", "coordinates": [35.64948606, -0.063625028]}}, {"type": "Feature", "properties": {"name": "NAKURU WEST (SOILO)  SUBSTATION ( 132 / 33 KV)", "incomingfe": "132", "outgoingfe": "33", "county": "Nakuru", "internaltb": 100600184.0, "ownership": "KPLC", "physicallo": "SOILO", "plotnumber": "5213/4", "manned": "YES", "pk": "78"}, "geometry": {"type": "Point", "coordinates": [36.03788861, -0.281560417]}}, {"type": "Feature", "properties": {"name": "MENENGAI  ( NONE / 132 KV)", "incomingfe": "0", "outgoingfe": "132", "county": "Nakuru", "internaltb": 100600268.0, "ownership": "KETRACO", "physicallo": "MENENGAI CREATER", "plotnumber": "8971/4", "manned": "YES", "pk": "79"}, "geometry": {"type": "Point", "coordinates": [36.0554795, -0.198741361]}}, {"type": "Feature", "properties": {"name": "OLKARIA 1AU 200KV ( 33 / 220 KV)", "incomingfe": "33", "outgoingfe": "220", "county": "Nakuru", "internaltb": 100600278.0, "ownership": "KENGEN", "physicallo": "OLKARIA", "plotnumber": "1248/3", "manned": "YES", "pk": "80"}, "geometry": {"type": "Point", "coordinates": [36.30748894, -0.888289111]}}, {"type": "Feature", "properties": {"name": "OLKARIA 4   11/ 200KV ( 11 / 220 KV)", "incomingfe": "11", "outgoingfe": "220", "county": "Nakuru", "internaltb": 100600279.0, "ownership": "KENGEN", "physicallo": "OLKARIA", "plotnumber": "1237/8", "manned": "YES", "pk": "81"}, "geometry": {"type": "Point", "coordinates": [36.33369158, -0.918672861]}}]}