{
"type": "FeatureCollection",
"name": "generationplant",
"crs": { "type": "name", "properties": { "name": "urn:ogc:def:crs:OGC:1.3:CRS84" } },
"features": [
{ "type": "Feature", "properties": { "Type": "Geothermal", "Name": "Olkaria I Geothermal Power Station", "Capacity": 185.0, "ORIG_FID": 0 }, "geometry": { "type": "Point", "coordinates": [ 36.308333332990699, -0.89333333332876 ] } },
{ "type": "Feature", "properties": { "Type": "Geothermal", "Name": "Olkaria II Geothermal Power Station", "Capacity": 105.0, "ORIG_FID": 1 }, "geometry": { "type": "Point", "coordinates": [ 36.299999999649913, -0.863611111106714 ] } },
{ "type": "Feature", "properties": { "Type": "Geothermal", "Name": "Olkaria III Geothermal Power Station", "Capacity": 110.0, "ORIG_FID": 2 }, "geometry": { "type": "Point", "coordinates": [ 36.299999999649906, -0.874999999995548 ] } },
{ "type": "Feature", "properties": { "Type": "Geothermal", "Name": "Olkaria IV Geothermal Power Station", "Capacity": 140.0, "ORIG_FID": 3 }, "geometry": { "type": "Point", "coordinates": [ 36.299999999649913, -0.863611111106714 ] } },
{ "type": "Feature", "properties": { "Type": "Geothermal", "Name": "Olkaria V Geothermal Power Station", "Capacity": 140.0, "ORIG_FID": 4 }, "geometry": { "type": "Point", "coordinates": [ 36.299999999649913, -0.863611111106714 ] } },
{ "type": "Feature", "properties": { "Type": "Geothermal", "Name": "Akiira One Geothermal Power Station", "Capacity": 70.0, "ORIG_FID": 5 }, "geometry": { "type": "Point", "coordinates": [ 36.299999999649813, -0.933333333328584 ] } },
{ "type": "Feature", "properties": { "Type": "Geothermal", "Name": "Menengai I Geothermal Power Station", "Capacity": 35.0, "ORIG_FID": 6 }, "geometry": { "type": "Point", "coordinates": [ 36.069999999380613, -0.193055555554411 ] } },
{ "type": "Feature", "properties": { "Type": "Geothermal", "Name": "Menengai II Geothermal Power Station", "Capacity": 35.0, "ORIG_FID": 7 }, "geometry": { "type": "Point", "coordinates": [ 36.06305555492581, -0.196111111109935 ] } },
{ "type": "Feature", "properties": { "Type": "Geothermal", "Name": "Menengai III Geothermal Power Station", "Capacity": 35.0, "ORIG_FID": 8 }, "geometry": { "type": "Point", "coordinates": [ 36.081666666064343, -0.195277777776631 ] } },
{ "type": "Feature", "properties": { "Type": "Fossil fuels", "Name": "Biojoule Thermal Power Station", "Capacity": 2.6, "ORIG_FID": 9 }, "geometry": { "type": "Point", "coordinates": [ 36.433333333087923, -0.699999999996603 ] } },
{ "type": "Feature", "properties": { "Type": "Fossil fuels", "Name": "Baringo Thermal Power Station", "Capacity": 10.8, "ORIG_FID": 10 }, "geometry": { "type": "Point", "coordinates": [ 35.749999998719282, -0.516666666662477 ] } }
]
}
