{
"type": "FeatureCollection",
"name": "transmissionsubstation",
"crs": { "type": "name", "properties": { "name": "urn:ogc:def:crs:OGC:1.3:CRS84" } },
"features": [
{ "type": "Feature", "properties": { "Name": "LANET SUBSTATION ( 132 \/ 11,33 KV)", "IncomingFe": "132", "OutgoingFe": "11,33", "County": "Nakuru", "InternalTb": 100600063.0, "Ownership": "KPLC", "PhysicalLo": "NAKURU TOWN", "PlotNumber": "8363\/3", "Manned": "YES", "ORIG_FID": 0 }, "geometry": { "type": "Point", "coordinates": [ 36.138984912802009, -0.303353376491283 ] } },
{ "type": "Feature", "properties": { "Name": "NAIVASHA SUBSTATION ( 132 \/ 33 KV)", "IncomingFe": "132", "OutgoingFe": "33", "County": "Nakuru", "InternalTb": 100600064.0, "Ownership": "KPLC", "PhysicalLo": "MAI MAHUI NAIVASHA", "PlotNumber": "7286\/1", "Manned": "YES", "ORIG_FID": 1 }, "geometry": { "type": "Point", "coordinates": [ 36.461754228374915, -0.798088417591471 ] } },
{ "type": "Feature", "properties": { "Name": "OLKARIA I ( 33 \/ 132 KV)", "IncomingFe": "33", "OutgoingFe": "132", "County": "Nakuru", "InternalTb": 100600106.0, "Ownership": "KENGEN", "PhysicalLo": "OLKARIA I GEOTHERMAL STATION", "PlotNumber": "8571\/8", "Manned": "YES", "ORIG_FID": 2 }, "geometry": { "type": "Point", "coordinates": [ 36.307288879397177, -0.893788217921407 ] } },
{ "type": "Feature", "properties": { "Name": "OLKARIA II ( 132 \/ 220 KV)", "IncomingFe": "132", "OutgoingFe": "220", "County": "Nakuru", "InternalTb": 100600108.0, "Ownership": "KPLC", "PhysicalLo": "OLKARIA", "PlotNumber": "8547\/5", "Manned": "YES", "ORIG_FID": 3 }, "geometry": { "type": "Point", "coordinates": [ 36.298325583358242, -0.865777703931758 ] } },
{ "type": "Feature", "properties": { "Name": "MAKUTANO 132\/33 SUB STATION ( 132 \/ 33 KV)", "IncomingFe": "132", "OutgoingFe": "33", "County": "Nakuru", "InternalTb": 100600170.0, "Ownership": "KPLC", "PhysicalLo": "MAKUTANO RAVINE LONDIANI JNC", "PlotNumber": "7859\/7", "Manned": "NO", "ORIG_FID": 4 }, "geometry": { "type": "Point", "coordinates": [ 35.649486042061362, -0.063625037093389 ] } },
{ "type": "Feature", "properties": { "Name": "NAKURU WEST (SOILO)  SUBSTATION ( 132 \/ 33 KV)", "IncomingFe": "132", "OutgoingFe": "33", "County": "Nakuru", "InternalTb": 100600184.0, "Ownership": "KPLC", "PhysicalLo": "SOILO", "PlotNumber": "5213\/4", "Manned": "YES", "ORIG_FID": 5 }, "geometry": { "type": "Point", "coordinates": [ 36.037888604388442, -0.281560430037067 ] } },
{ "type": "Feature", "properties": { "Name": "MENENGAI  ( NONE \/ 132 KV)", "IncomingFe": "0", "OutgoingFe": "132", "County": "Nakuru", "InternalTb": 100600268.0, "Ownership": "KETRACO", "PhysicalLo": "MENENGAI CREATER", "PlotNumber": "8971\/4", "Manned": "YES", "ORIG_FID": 6 }, "geometry": { "type": "Point", "coordinates": [ 36.055479486314631, -0.19874137159526 ] } },
{ "type": "Feature", "properties": { "Name": "OLKARIA 1AU 200KV ( 33 \/ 220 KV)", "IncomingFe": "33", "OutgoingFe": "220", "County": "Nakuru", "InternalTb": 100600278.0, "Ownership": "KENGEN", "PhysicalLo": "OLKARIA", "PlotNumber": "1248\/3", "Manned": "YES", "ORIG_FID": 7 }, "geometry": { "type": "Point", "coordinates": [ 36.307488938651964, -0.888289118239763 ] } },
{ "type": "Feature", "properties": { "Name": "OLKARIA 4   11\/ 200KV ( 11 \/ 220 KV)", "IncomingFe": "11", "OutgoingFe": "220", "County": "Nakuru", "InternalTb": 100600279.0, "Ownership": "KENGEN", "PhysicalLo": "OLKARIA", "PlotNumber": "1237\/8", "Manned": "YES", "ORIG_FID": 8 }, "geometry": { "type": "Point", "coordinates": [ 36.333691592045348, -0.918672856261258 ] } }
]
}
